[
  {
    "ID": 30670,
    "LON": -68.7463,
    "LAT": -11.0109,
    "NAME": "Brasiléia",
    "CLASS": "Sede Municipal",
    "STATE": "ACRE",
    "ANNUAL": 4620,
    "JAN": 4655,
    "FEB": 4653,
    "MAR": 4268,
    "APR": 4566,
    "MAY": 3945,
    "JUN": 4079,
    "JUL": 4285,
    "AUG": 4858,
    "SEP": 5102,
    "OCT": 5105,
    "NOV": 5157,
    "DEC": 4771
  },
  {
    "ID": 30670,
    "LON": -68.7442,
    "LAT": -11.0293,
    "NAME": "Epitaciolândia",
    "CLASS": "Sede Municipal",
    "STATE": "ACRE",
    "ANNUAL": 4620,
    "JAN": 4655,
    "FEB": 4653,
    "MAR": 4268,
    "APR": 4566,
    "MAY": 3945,
    "JUN": 4079,
    "JUL": 4285,
    "AUG": 4858,
    "SEP": 5102,
    "OCT": 5105,
    "NOV": 5157,
    "DEC": 4771
  },
  {
    "ID": 30970,
    "LON": -69.5658,
    "LAT": -10.9394,
    "NAME": "Assis Brasil",
    "CLASS": "Sede Municipal",
    "STATE": "ACRE",
    "ANNUAL": 4615,
    "JAN": 4678,
    "FEB": 4661,
    "MAR": 4231,
    "APR": 4532,
    "MAY": 3917,
    "JUN": 4026,
    "JUL": 4283,
    "AUG": 4947,
    "SEP": 5136,
    "OCT": 5092,
    "NOV": 5102,
    "DEC": 4771
  },
  {
    "ID": 31603,
    "LON": -68.4973,
    "LAT": -10.652,
    "NAME": "Xapuri",
    "CLASS": "Sede Municipal",
    "STATE": "ACRE",
    "ANNUAL": 4607,
    "JAN": 4629,
    "FEB": 4586,
    "MAR": 4281,
    "APR": 4578,
    "MAY": 3962,
    "JUN": 4125,
    "JUL": 4332,
    "AUG": 4894,
    "SEP": 5068,
    "OCT": 5071,
    "NOV": 5077,
    "DEC": 4686
  },
  {
    "ID": 31929,
    "LON": -67.6768,
    "LAT": -10.5749,
    "NAME": "Capixaba",
    "CLASS": "Sede Municipal",
    "STATE": "ACRE",
    "ANNUAL": 4542,
    "JAN": 4486,
    "FEB": 4527,
    "MAR": 4264,
    "APR": 4395,
    "MAY": 3957,
    "JUN": 3983,
    "JUL": 4228,
    "AUG": 4823,
    "SEP": 5070,
    "OCT": 5138,
    "NOV": 4952,
    "DEC": 4677
  },
  {
    "ID": 32906,
    "LON": -67.186,
    "LAT": -10.3257,
    "NAME": "Plácido de Castro",
    "CLASS": "Sede Municipal",
    "STATE": "ACRE",
    "ANNUAL": 4523,
    "JAN": 4476,
    "FEB": 4490,
    "MAR": 4266,
    "APR": 4385,
    "MAY": 3968,
    "JUN": 4093,
    "JUL": 4300,
    "AUG": 4829,
    "SEP": 4853,
    "OCT": 5073,
    "NOV": 4917,
    "DEC": 4626
  },
  {
    "ID": 33560,
    "LON": -67.7367,
    "LAT": -10.1501,
    "NAME": "Senador Guiomard",
    "CLASS": "Sede Municipal",
    "STATE": "ACRE",
    "ANNUAL": 4558,
    "JAN": 4483,
    "FEB": 4594,
    "MAR": 4218,
    "APR": 4417,
    "MAY": 3943,
    "JUN": 4088,
    "JUL": 4271,
    "AUG": 4874,
    "SEP": 5097,
    "OCT": 5137,
    "NOV": 4967,
    "DEC": 4611
  },
  {
    "ID": 33567,
    "LON": -67.0531,
    "LAT": -10.0755,
    "NAME": "Acrelândia",
    "CLASS": "Sede Municipal",
    "STATE": "ACRE",
    "ANNUAL": 4515,
    "JAN": 4521,
    "FEB": 4522,
    "MAR": 4247,
    "APR": 4371,
    "MAY": 3960,
    "JUN": 4084,
    "JUL": 4284,
    "AUG": 4807,
    "SEP": 4915,
    "OCT": 5008,
    "NOV": 4885,
    "DEC": 4574
  },
  {
    "ID": 33902,
    "LON": -67.8253,
    "LAT": -9.9758,
    "NAME": "Rio Branco",
    "CLASS": "Capital Estadual",
    "STATE": "ACRE",
    "ANNUAL": 4560,
    "JAN": 4470,
    "FEB": 4608,
    "MAR": 4216,
    "APR": 4414,
    "MAY": 3946,
    "JUN": 4088,
    "JUL": 4263,
    "AUG": 4866,
    "SEP": 5104,
    "OCT": 5105,
    "NOV": 5035,
    "DEC": 4606
  },
  {
    "ID": 34602,
    "LON": -67.9523,
    "LAT": -9.834,
    "NAME": "Bujari",
    "CLASS": "Sede Municipal",
    "STATE": "ACRE",
    "ANNUAL": 4567,
    "JAN": 4501,
    "FEB": 4621,
    "MAR": 4231,
    "APR": 4401,
    "MAY": 4011,
    "JUN": 4111,
    "JUL": 4316,
    "AUG": 4885,
    "SEP": 5031,
    "OCT": 5131,
    "NOV": 4989,
    "DEC": 4580
  },
  {
    "ID": 35335,
    "LON": -67.5408,
    "LAT": -9.5942,
    "NAME": "Porto Acre",
    "CLASS": "Sede Municipal",
    "STATE": "ACRE",
    "ANNUAL": 4547,
    "JAN": 4411,
    "FEB": 4549,
    "MAR": 4278,
    "APR": 4376,
    "MAY": 3975,
    "JUN": 4122,
    "JUL": 4333,
    "AUG": 4946,
    "SEP": 5010,
    "OCT": 5064,
    "NOV": 4914,
    "DEC": 4589
  },
  {
    "ID": 36055,
    "LON": -70.4907,
    "LAT": -9.4469,
    "NAME": "Santa Rosa do Purus",
    "CLASS": "Sede Municipal",
    "STATE": "ACRE",
    "ANNUAL": 4591,
    "JAN": 4585,
    "FEB": 4698,
    "MAR": 4184,
    "APR": 4434,
    "MAY": 4087,
    "JUN": 4106,
    "JUL": 4372,
    "AUG": 5028,
    "SEP": 5071,
    "OCT": 5006,
    "NOV": 4945,
    "DEC": 4580
  },
  {
    "ID": 36796,
    "LON": -71.9482,
    "LAT": -9.1969,
    "NAME": "Jordão",
    "CLASS": "Sede Municipal",
    "STATE": "ACRE",
    "ANNUAL": 4640,
    "JAN": 4685,
    "FEB": 4804,
    "MAR": 4118,
    "APR": 4494,
    "MAY": 4132,
    "JUN": 4151,
    "JUL": 4367,
    "AUG": 5047,
    "SEP": 5174,
    "OCT": 5038,
    "NOV": 5006,
    "DEC": 4669
  },
  {
    "ID": 37207,
    "LON": -68.6718,
    "LAT": -9.0639,
    "NAME": "Sena Madureira",
    "CLASS": "Sede Municipal",
    "STATE": "ACRE",
    "ANNUAL": 4539,
    "JAN": 4479,
    "FEB": 4619,
    "MAR": 4286,
    "APR": 4302,
    "MAY": 3959,
    "JUN": 4081,
    "JUL": 4303,
    "AUG": 4940,
    "SEP": 5035,
    "OCT": 5008,
    "NOV": 4882,
    "DEC": 4573
  },
  {
    "ID": 37924,
    "LON": -72.8002,
    "LAT": -8.9394,
    "NAME": "Marechal Thaumaturgo",
    "CLASS": "Sede Municipal",
    "STATE": "ACRE",
    "ANNUAL": 4705,
    "JAN": 4717,
    "FEB": 4931,
    "MAR": 4178,
    "APR": 4514,
    "MAY": 4261,
    "JUN": 4149,
    "JUL": 4357,
    "AUG": 5063,
    "SEP": 5333,
    "OCT": 5149,
    "NOV": 5067,
    "DEC": 4741
  },
  {
    "ID": 38341,
    "LON": -69.2684,
    "LAT": -8.8333,
    "NAME": "Manoel Urbano",
    "CLASS": "Sede Municipal",
    "STATE": "ACRE",
    "ANNUAL": 4555,
    "JAN": 4458,
    "FEB": 4702,
    "MAR": 4220,
    "APR": 4375,
    "MAY": 3967,
    "JUN": 4104,
    "JUL": 4381,
    "AUG": 5014,
    "SEP": 5120,
    "OCT": 5003,
    "NOV": 4802,
    "DEC": 4515
  },
  {
    "ID": 40234,
    "LON": -72.7542,
    "LAT": -8.2636,
    "NAME": "Porto Walter",
    "CLASS": "Sede Municipal",
    "STATE": "ACRE",
    "ANNUAL": 4731,
    "JAN": 4779,
    "FEB": 4887,
    "MAR": 4257,
    "APR": 4537,
    "MAY": 4301,
    "JUN": 4184,
    "JUL": 4419,
    "AUG": 5124,
    "SEP": 5306,
    "OCT": 5140,
    "NOV": 5056,
    "DEC": 4779
  },
  {
    "ID": 40642,
    "LON": -70.7726,
    "LAT": -8.1574,
    "NAME": "Tarauacá",
    "CLASS": "Sede Municipal",
    "STATE": "ACRE",
    "ANNUAL": 4602,
    "JAN": 4555,
    "FEB": 4804,
    "MAR": 4236,
    "APR": 4397,
    "MAY": 4088,
    "JUN": 4115,
    "JUL": 4341,
    "AUG": 5005,
    "SEP": 5193,
    "OCT": 5118,
    "NOV": 4843,
    "DEC": 4533
  },
  {
    "ID": 40646,
    "LON": -70.3537,
    "LAT": -8.1635,
    "NAME": "Feijó",
    "CLASS": "Sede Municipal",
    "STATE": "ACRE",
    "ANNUAL": 4557,
    "JAN": 4505,
    "FEB": 4806,
    "MAR": 4211,
    "APR": 4384,
    "MAY": 3993,
    "JUN": 4088,
    "JUL": 4275,
    "AUG": 4951,
    "SEP": 5090,
    "OCT": 5090,
    "NOV": 4785,
    "DEC": 4503
  },
  {
    "ID": 42573,
    "LON": -72.6505,
    "LAT": -7.7342,
    "NAME": "Rodrigues Alves",
    "CLASS": "Sede Municipal",
    "STATE": "ACRE",
    "ANNUAL": 4680,
    "JAN": 4755,
    "FEB": 4923,
    "MAR": 4243,
    "APR": 4490,
    "MAY": 4278,
    "JUN": 4184,
    "JUL": 4339,
    "AUG": 5049,
    "SEP": 5208,
    "OCT": 5028,
    "NOV": 4957,
    "DEC": 4708
  },
  {
    "ID": 42962,
    "LON": -72.9002,
    "LAT": -7.617,
    "NAME": "Mâncio Lima",
    "CLASS": "Sede Municipal",
    "STATE": "ACRE",
    "ANNUAL": 4703,
    "JAN": 4752,
    "FEB": 4903,
    "MAR": 4335,
    "APR": 4496,
    "MAY": 4279,
    "JUN": 4173,
    "JUL": 4323,
    "AUG": 5095,
    "SEP": 5200,
    "OCT": 5115,
    "NOV": 5005,
    "DEC": 4759
  },
  {
    "ID": 42965,
    "LON": -72.6761,
    "LAT": -7.628,
    "NAME": "Cruzeiro do Sul",
    "CLASS": "Sede Municipal",
    "STATE": "ACRE",
    "ANNUAL": 4663,
    "JAN": 4738,
    "FEB": 4902,
    "MAR": 4248,
    "APR": 4455,
    "MAY": 4285,
    "JUN": 4164,
    "JUL": 4363,
    "AUG": 4996,
    "SEP": 5135,
    "OCT": 5024,
    "NOV": 4950,
    "DEC": 4701
  },
  {
    "ID": 32868,
    "LON": -36.4343,
    "LAT": -10.4064,
    "NAME": "Piaçabuçu",
    "CLASS": "Sede Municipal",
    "STATE": "ALAGOAS",
    "ANNUAL": 5441,
    "JAN": 6151,
    "FEB": 6169,
    "MAR": 6059,
    "APR": 5039,
    "MAY": 4366,
    "JUN": 4106,
    "JUL": 4158,
    "AUG": 4855,
    "SEP": 5535,
    "OCT": 6017,
    "NOV": 6358,
    "DEC": 6473
  },
  {
    "ID": 33196,
    "LON": -36.5822,
    "LAT": -10.2879,
    "NAME": "Penedo",
    "CLASS": "Sede Municipal",
    "STATE": "ALAGOAS",
    "ANNUAL": 5338,
    "JAN": 6097,
    "FEB": 5947,
    "MAR": 5891,
    "APR": 5045,
    "MAY": 4298,
    "JUN": 4042,
    "JUL": 4110,
    "AUG": 4722,
    "SEP": 5442,
    "OCT": 5861,
    "NOV": 6297,
    "DEC": 6312
  },
  {
    "ID": 33198,
    "LON": -36.3031,
    "LAT": -10.2939,
    "NAME": "Feliz Deserto",
    "CLASS": "Sede Municipal",
    "STATE": "ALAGOAS",
    "ANNUAL": 5439,
    "JAN": 6257,
    "FEB": 6212,
    "MAR": 6051,
    "APR": 5040,
    "MAY": 4364,
    "JUN": 4031,
    "JUL": 4142,
    "AUG": 4785,
    "SEP": 5523,
    "OCT": 6027,
    "NOV": 6346,
    "DEC": 6488
  },
  {
    "ID": 33523,
    "LON": -36.8379,
    "LAT": -10.1853,
    "NAME": "Porto Real do Colégio",
    "CLASS": "Sede Municipal",
    "STATE": "ALAGOAS",
    "ANNUAL": 5434,
    "JAN": 6333,
    "FEB": 6118,
    "MAR": 5996,
    "APR": 5239,
    "MAY": 4349,
    "JUN": 4101,
    "JUL": 4151,
    "AUG": 4716,
    "SEP": 5538,
    "OCT": 5903,
    "NOV": 6349,
    "DEC": 6408
  },
  {
    "ID": 33854,
    "LON": -36.9019,
    "LAT": -10.1215,
    "NAME": "São Brás",
    "CLASS": "Sede Municipal",
    "STATE": "ALAGOAS",
    "ANNUAL": 5399,
    "JAN": 6221,
    "FEB": 6007,
    "MAR": 5932,
    "APR": 5205,
    "MAY": 4363,
    "JUN": 4123,
    "JUL": 4185,
    "AUG": 4773,
    "SEP": 5552,
    "OCT": 5852,
    "NOV": 6291,
    "DEC": 6284
  },
  {
    "ID": 33855,
    "LON": -36.8133,
    "LAT": -10.0571,
    "NAME": "Olho d'Água Grande",
    "CLASS": "Sede Municipal",
    "STATE": "ALAGOAS",
    "ANNUAL": 5321,
    "JAN": 6069,
    "FEB": 5904,
    "MAR": 5799,
    "APR": 5144,
    "MAY": 4314,
    "JUN": 4098,
    "JUL": 4159,
    "AUG": 4736,
    "SEP": 5465,
    "OCT": 5763,
    "NOV": 6206,
    "DEC": 6201
  },
  {
    "ID": 33857,
    "LON": -36.6571,
    "LAT": -10.1284,
    "NAME": "Igreja Nova",
    "CLASS": "Sede Municipal",
    "STATE": "ALAGOAS",
    "ANNUAL": 5265,
    "JAN": 5979,
    "FEB": 5848,
    "MAR": 5791,
    "APR": 5008,
    "MAY": 4252,
    "JUN": 4037,
    "JUL": 4085,
    "AUG": 4635,
    "SEP": 5388,
    "OCT": 5749,
    "NOV": 6213,
    "DEC": 6189
  },
  {
    "ID": 33862,
    "LON": -36.172,
    "LAT": -10.1281,
    "NAME": "Coruripe",
    "CLASS": "Sede Municipal",
    "STATE": "ALAGOAS",
    "ANNUAL": 5462,
    "JAN": 6126,
    "FEB": 6183,
    "MAR": 5996,
    "APR": 5152,
    "MAY": 4440,
    "JUN": 4127,
    "JUL": 4222,
    "AUG": 4905,
    "SEP": 5577,
    "OCT": 6021,
    "NOV": 6344,
    "DEC": 6454
  },
  {
    "ID": 34198,
    "LON": -37.0025,
    "LAT": -9.9628,
    "NAME": "Traipu",
    "CLASS": "Sede Municipal",
    "STATE": "ALAGOAS",
    "ANNUAL": 5463,
    "JAN": 6289,
    "FEB": 6051,
    "MAR": 5999,
    "APR": 5276,
    "MAY": 4383,
    "JUN": 4141,
    "JUL": 4214,
    "AUG": 4867,
    "SEP": 5694,
    "OCT": 5930,
    "NOV": 6379,
    "DEC": 6328
  },
  {
    "ID": 34201,
    "LON": -36.7929,
    "LAT": -9.9559,
    "NAME": "Campo Grande",
    "CLASS": "Sede Municipal",
    "STATE": "ALAGOAS",
    "ANNUAL": 5252,
    "JAN": 5911,
    "FEB": 5811,
    "MAR": 5773,
    "APR": 5030,
    "MAY": 4228,
    "JUN": 4001,
    "JUL": 4072,
    "AUG": 4628,
    "SEP": 5412,
    "OCT": 5747,
    "NOV": 6210,
    "DEC": 6195
  },
  {
    "ID": 34208,
    "LON": -36.0145,
    "LAT": -10.0137,
    "NAME": "Jequiá da Praia",
    "CLASS": "Sede Municipal",
    "STATE": "ALAGOAS",
    "ANNUAL": 5455,
    "JAN": 6133,
    "FEB": 6178,
    "MAR": 6052,
    "APR": 5177,
    "MAY": 4395,
    "JUN": 4075,
    "JUL": 4168,
    "AUG": 4839,
    "SEP": 5582,
    "OCT": 6045,
    "NOV": 6334,
    "DEC": 6488
  },
  {
    "ID": 34550,
    "LON": -36.8319,
    "LAT": -9.8845,
    "NAME": "Girau do Ponciano",
    "CLASS": "Sede Municipal",
    "STATE": "ALAGOAS",
    "ANNUAL": 5290,
    "JAN": 6010,
    "FEB": 5815,
    "MAR": 5843,
    "APR": 5091,
    "MAY": 4266,
    "JUN": 3992,
    "JUL": 4098,
    "AUG": 4682,
    "SEP": 5461,
    "OCT": 5774,
    "NOV": 6247,
    "DEC": 6205
  },
  {
    "ID": 34552,
    "LON": -36.679,
    "LAT": -9.8986,
    "NAME": "Feira Grande",
    "CLASS": "Sede Municipal",
    "STATE": "ALAGOAS",
    "ANNUAL": 5246,
    "JAN": 5966,
    "FEB": 5788,
    "MAR": 5762,
    "APR": 5062,
    "MAY": 4264,
    "JUN": 3959,
    "JUL": 4025,
    "AUG": 4600,
    "SEP": 5402,
    "OCT": 5696,
    "NOV": 6217,
    "DEC": 6209
  },
  {
    "ID": 34553,
    "LON": -36.5501,
    "LAT": -9.9319,
    "NAME": "São Sebastião",
    "CLASS": "Sede Municipal",
    "STATE": "ALAGOAS",
    "ANNUAL": 5258,
    "JAN": 6023,
    "FEB": 5811,
    "MAR": 5804,
    "APR": 5061,
    "MAY": 4293,
    "JUN": 3991,
    "JUL": 3969,
    "AUG": 4642,
    "SEP": 5368,
    "OCT": 5711,
    "NOV": 6221,
    "DEC": 6205
  },
  {
    "ID": 34554,
    "LON": -36.4806,
    "LAT": -9.9074,
    "NAME": "Junqueiro",
    "CLASS": "Sede Municipal",
    "STATE": "ALAGOAS",
    "ANNUAL": 5237,
    "JAN": 5999,
    "FEB": 5806,
    "MAR": 5804,
    "APR": 5069,
    "MAY": 4271,
    "JUN": 3934,
    "JUL": 3975,
    "AUG": 4556,
    "SEP": 5354,
    "OCT": 5681,
    "NOV": 6193,
    "DEC": 6200
  },
  {
    "ID": 34555,
    "LON": -36.358,
    "LAT": -9.9094,
    "NAME": "Teotônio Vilela",
    "CLASS": "Sede Municipal",
    "STATE": "ALAGOAS",
    "ANNUAL": 5230,
    "JAN": 5961,
    "FEB": 5808,
    "MAR": 5811,
    "APR": 5038,
    "MAY": 4282,
    "JUN": 3930,
    "JUL": 3989,
    "AUG": 4581,
    "SEP": 5314,
    "OCT": 5664,
    "NOV": 6196,
    "DEC": 6185
  },
  {
    "ID": 34909,
    "LON": -37.2773,
    "LAT": -9.8232,
    "NAME": "Belo Monte",
    "CLASS": "Sede Municipal",
    "STATE": "ALAGOAS",
    "ANNUAL": 5374,
    "JAN": 6106,
    "FEB": 5948,
    "MAR": 5903,
    "APR": 5211,
    "MAY": 4360,
    "JUN": 4066,
    "JUL": 4154,
    "AUG": 4787,
    "SEP": 5560,
    "OCT": 5804,
    "NOV": 6341,
    "DEC": 6250
  },
  {
    "ID": 34914,
    "LON": -36.7401,
    "LAT": -9.8294,
    "NAME": "Lagoa da Canoa",
    "CLASS": "Sede Municipal",
    "STATE": "ALAGOAS",
    "ANNUAL": 5316,
    "JAN": 6065,
    "FEB": 5840,
    "MAR": 5855,
    "APR": 5113,
    "MAY": 4249,
    "JUN": 3977,
    "JUL": 4120,
    "AUG": 4683,
    "SEP": 5450,
    "OCT": 5821,
    "NOV": 6324,
    "DEC": 6290
  },
  {
    "ID": 34915,
    "LON": -36.6618,
    "LAT": -9.7553,
    "NAME": "Arapiraca",
    "CLASS": "Sede Municipal",
    "STATE": "ALAGOAS",
    "ANNUAL": 5288,
    "JAN": 6047,
    "FEB": 5817,
    "MAR": 5833,
    "APR": 5096,
    "MAY": 4246,
    "JUN": 3958,
    "JUL": 4072,
    "AUG": 4644,
    "SEP": 5404,
    "OCT": 5764,
    "NOV": 6285,
    "DEC": 6289
  },
  {
    "ID": 34918,
    "LON": -36.3528,
    "LAT": -9.7849,
    "NAME": "Campo Alegre",
    "CLASS": "Sede Municipal",
    "STATE": "ALAGOAS",
    "ANNUAL": 5238,
    "JAN": 5960,
    "FEB": 5832,
    "MAR": 5843,
    "APR": 5054,
    "MAY": 4239,
    "JUN": 3893,
    "JUL": 4029,
    "AUG": 4570,
    "SEP": 5312,
    "OCT": 5689,
    "NOV": 6179,
    "DEC": 6261
  },
  {
    "ID": 34921,
    "LON": -36.0974,
    "LAT": -9.7834,
    "NAME": "São Miguel dos Campos",
    "CLASS": "Sede Municipal",
    "STATE": "ALAGOAS",
    "ANNUAL": 5319,
    "JAN": 6011,
    "FEB": 5976,
    "MAR": 5945,
    "APR": 5026,
    "MAY": 4323,
    "JUN": 3963,
    "JUL": 4050,
    "AUG": 4611,
    "SEP": 5438,
    "OCT": 5844,
    "NOV": 6326,
    "DEC": 6311
  },
  {
    "ID": 34922,
    "LON": -35.906,
    "LAT": -9.8389,
    "NAME": "Barra de São Miguel",
    "CLASS": "Sede Municipal",
    "STATE": "ALAGOAS",
    "ANNUAL": 5398,
    "JAN": 6125,
    "FEB": 6105,
    "MAR": 6021,
    "APR": 5137,
    "MAY": 4364,
    "JUN": 3993,
    "JUL": 4159,
    "AUG": 4768,
    "SEP": 5496,
    "OCT": 5906,
    "NOV": 6322,
    "DEC": 6382
  },
  {
    "ID": 34922,
    "LON": -35.9785,
    "LAT": -9.8355,
    "NAME": "Roteiro",
    "CLASS": "Sede Municipal",
    "STATE": "ALAGOAS",
    "ANNUAL": 5398,
    "JAN": 6125,
    "FEB": 6105,
    "MAR": 6021,
    "APR": 5137,
    "MAY": 4364,
    "JUN": 3993,
    "JUL": 4159,
    "AUG": 4768,
    "SEP": 5496,
    "OCT": 5906,
    "NOV": 6322,
    "DEC": 6382
  },
  {
    "ID": 35270,
    "LON": -37.4407,
    "LAT": -9.7415,
    "NAME": "Pão de Açúcar",
    "CLASS": "Sede Municipal",
    "STATE": "ALAGOAS",
    "ANNUAL": 5447,
    "JAN": 6201,
    "FEB": 6071,
    "MAR": 5984,
    "APR": 5326,
    "MAY": 4435,
    "JUN": 4130,
    "JUL": 4222,
    "AUG": 4848,
    "SEP": 5568,
    "OCT": 5863,
    "NOV": 6425,
    "DEC": 6287
  },
  {
    "ID": 35271,
    "LON": -37.3386,
    "LAT": -9.6725,
    "NAME": "Palestina",
    "CLASS": "Sede Municipal",
    "STATE": "ALAGOAS",
    "ANNUAL": 5341,
    "JAN": 6070,
    "FEB": 5901,
    "MAR": 5898,
    "APR": 5190,
    "MAY": 4389,
    "JUN": 4012,
    "JUL": 4128,
    "AUG": 4669,
    "SEP": 5467,
    "OCT": 5758,
    "NOV": 6367,
    "DEC": 6241
  },
  {
    "ID": 35273,
    "LON": -37.1279,
    "LAT": -9.6735,
    "NAME": "Batalha",
    "CLASS": "Sede Municipal",
    "STATE": "ALAGOAS",
    "ANNUAL": 5309,
    "JAN": 6067,
    "FEB": 5785,
    "MAR": 5811,
    "APR": 5152,
    "MAY": 4279,
    "JUN": 3975,
    "JUL": 4097,
    "AUG": 4724,
    "SEP": 5504,
    "OCT": 5731,
    "NOV": 6323,
    "DEC": 6261
  },
  {
    "ID": 35274,
    "LON": -37.0017,
    "LAT": -9.6593,
    "NAME": "Jaramataia",
    "CLASS": "Sede Municipal",
    "STATE": "ALAGOAS",
    "ANNUAL": 5269,
    "JAN": 6029,
    "FEB": 5731,
    "MAR": 5783,
    "APR": 5080,
    "MAY": 4237,
    "JUN": 3972,
    "JUL": 4050,
    "AUG": 4646,
    "SEP": 5427,
    "OCT": 5711,
    "NOV": 6356,
    "DEC": 6206
  },
  {
    "ID": 35279,
    "LON": -36.5034,
    "LAT": -9.7407,
    "NAME": "Limoeiro de Anadia",
    "CLASS": "Sede Municipal",
    "STATE": "ALAGOAS",
    "ANNUAL": 5290,
    "JAN": 6002,
    "FEB": 5809,
    "MAR": 5825,
    "APR": 5090,
    "MAY": 4243,
    "JUN": 3941,
    "JUL": 4040,
    "AUG": 4661,
    "SEP": 5451,
    "OCT": 5762,
    "NOV": 6358,
    "DEC": 6302
  },
  {
    "ID": 35281,
    "LON": -36.3081,
    "LAT": -9.6853,
    "NAME": "Anadia",
    "CLASS": "Sede Municipal",
    "STATE": "ALAGOAS",
    "ANNUAL": 5234,
    "JAN": 5928,
    "FEB": 5819,
    "MAR": 5794,
    "APR": 5058,
    "MAY": 4200,
    "JUN": 3903,
    "JUL": 3962,
    "AUG": 4551,
    "SEP": 5381,
    "OCT": 5702,
    "NOV": 6236,
    "DEC": 6275
  },
  {
    "ID": 35286,
    "LON": -35.897,
    "LAT": -9.7101,
    "NAME": "Marechal Deodoro",
    "CLASS": "Sede Municipal",
    "STATE": "ALAGOAS",
    "ANNUAL": 5451,
    "JAN": 6147,
    "FEB": 6103,
    "MAR": 6033,
    "APR": 5183,
    "MAY": 4401,
    "JUN": 4066,
    "JUL": 4216,
    "AUG": 4893,
    "SEP": 5597,
    "OCT": 6004,
    "NOV": 6355,
    "DEC": 6415
  },
  {
    "ID": 35287,
    "LON": -35.7018,
    "LAT": -9.6607,
    "NAME": "Maceió",
    "CLASS": "Capital Estadual",
    "STATE": "ALAGOAS",
    "ANNUAL": 5523,
    "JAN": 6173,
    "FEB": 6161,
    "MAR": 6101,
    "APR": 5255,
    "MAY": 4446,
    "JUN": 4140,
    "JUL": 4301,
    "AUG": 5012,
    "SEP": 5735,
    "OCT": 6036,
    "NOV": 6406,
    "DEC": 6510
  },
  {
    "ID": 35633,
    "LON": -37.7598,
    "LAT": -9.6089,
    "NAME": "Piranhas",
    "CLASS": "Sede Municipal",
    "STATE": "ALAGOAS",
    "ANNUAL": 5469,
    "JAN": 6312,
    "FEB": 6059,
    "MAR": 5965,
    "APR": 5324,
    "MAY": 4470,
    "JUN": 4066,
    "JUL": 4198,
    "AUG": 4834,
    "SEP": 5658,
    "OCT": 5958,
    "NOV": 6426,
    "DEC": 6357
  },
  {
    "ID": 35637,
    "LON": -37.3834,
    "LAT": -9.5581,
    "NAME": "São José da Tapera",
    "CLASS": "Sede Municipal",
    "STATE": "ALAGOAS",
    "ANNUAL": 5405,
    "JAN": 6159,
    "FEB": 5971,
    "MAR": 5949,
    "APR": 5272,
    "MAY": 4358,
    "JUN": 4012,
    "JUL": 4163,
    "AUG": 4737,
    "SEP": 5538,
    "OCT": 5919,
    "NOV": 6483,
    "DEC": 6298
  },
  {
    "ID": 35638,
    "LON": -37.2079,
    "LAT": -9.6359,
    "NAME": "Jacaré dos Homens",
    "CLASS": "Sede Municipal",
    "STATE": "ALAGOAS",
    "ANNUAL": 5360,
    "JAN": 6104,
    "FEB": 5882,
    "MAR": 5920,
    "APR": 5223,
    "MAY": 4355,
    "JUN": 3979,
    "JUL": 4124,
    "AUG": 4680,
    "SEP": 5469,
    "OCT": 5850,
    "NOV": 6462,
    "DEC": 6268
  },
  {
    "ID": 35638,
    "LON": -37.2508,
    "LAT": -9.604,
    "NAME": "Monteirópolis",
    "CLASS": "Sede Municipal",
    "STATE": "ALAGOAS",
    "ANNUAL": 5360,
    "JAN": 6104,
    "FEB": 5882,
    "MAR": 5920,
    "APR": 5223,
    "MAY": 4355,
    "JUN": 3979,
    "JUL": 4124,
    "AUG": 4680,
    "SEP": 5469,
    "OCT": 5850,
    "NOV": 6462,
    "DEC": 6268
  },
  {
    "ID": 35643,
    "LON": -36.77,
    "LAT": -9.6182,
    "NAME": "Craíbas",
    "CLASS": "Sede Municipal",
    "STATE": "ALAGOAS",
    "ANNUAL": 5389,
    "JAN": 6118,
    "FEB": 5849,
    "MAR": 5973,
    "APR": 5235,
    "MAY": 4316,
    "JUN": 3982,
    "JUL": 4140,
    "AUG": 4728,
    "SEP": 5589,
    "OCT": 5913,
    "NOV": 6423,
    "DEC": 6396
  },
  {
    "ID": 35645,
    "LON": -36.5848,
    "LAT": -9.6339,
    "NAME": "Coité do Nóia",
    "CLASS": "Sede Municipal",
    "STATE": "ALAGOAS",
    "ANNUAL": 5339,
    "JAN": 6100,
    "FEB": 5907,
    "MAR": 5877,
    "APR": 5129,
    "MAY": 4257,
    "JUN": 3910,
    "JUL": 4025,
    "AUG": 4649,
    "SEP": 5513,
    "OCT": 5861,
    "NOV": 6422,
    "DEC": 6425
  },
  {
    "ID": 35646,
    "LON": -36.4907,
    "LAT": -9.5709,
    "NAME": "Belém",
    "CLASS": "Sede Municipal",
    "STATE": "ALAGOAS",
    "ANNUAL": 5247,
    "JAN": 5989,
    "FEB": 5835,
    "MAR": 5777,
    "APR": 5115,
    "MAY": 4198,
    "JUN": 3834,
    "JUL": 3925,
    "AUG": 4551,
    "SEP": 5377,
    "OCT": 5718,
    "NOV": 6331,
    "DEC": 6314
  },
  {
    "ID": 35646,
    "LON": -36.4931,
    "LAT": -9.6457,
    "NAME": "Taquarana",
    "CLASS": "Sede Municipal",
    "STATE": "ALAGOAS",
    "ANNUAL": 5247,
    "JAN": 5989,
    "FEB": 5835,
    "MAR": 5777,
    "APR": 5115,
    "MAY": 4198,
    "JUN": 3834,
    "JUL": 3925,
    "AUG": 4551,
    "SEP": 5377,
    "OCT": 5718,
    "NOV": 6331,
    "DEC": 6314
  },
  {
    "ID": 35647,
    "LON": -36.3048,
    "LAT": -9.584,
    "NAME": "Maribondo",
    "CLASS": "Sede Municipal",
    "STATE": "ALAGOAS",
    "ANNUAL": 5233,
    "JAN": 5958,
    "FEB": 5799,
    "MAR": 5772,
    "APR": 5081,
    "MAY": 4198,
    "JUN": 3832,
    "JUL": 3924,
    "AUG": 4532,
    "SEP": 5393,
    "OCT": 5729,
    "NOV": 6295,
    "DEC": 6283
  },
  {
    "ID": 35648,
    "LON": -36.2128,
    "LAT": -9.6435,
    "NAME": "Boca da Mata",
    "CLASS": "Sede Municipal",
    "STATE": "ALAGOAS",
    "ANNUAL": 5147,
    "JAN": 5840,
    "FEB": 5697,
    "MAR": 5751,
    "APR": 4981,
    "MAY": 4144,
    "JUN": 3773,
    "JUL": 3881,
    "AUG": 4431,
    "SEP": 5303,
    "OCT": 5606,
    "NOV": 6198,
    "DEC": 6154
  },
  {
    "ID": 35651,
    "LON": -35.9546,
    "LAT": -9.6018,
    "NAME": "Pilar",
    "CLASS": "Sede Municipal",
    "STATE": "ALAGOAS",
    "ANNUAL": 5307,
    "JAN": 5977,
    "FEB": 5918,
    "MAR": 5877,
    "APR": 5097,
    "MAY": 4313,
    "JUN": 3984,
    "JUL": 4102,
    "AUG": 4705,
    "SEP": 5494,
    "OCT": 5760,
    "NOV": 6238,
    "DEC": 6220
  },
  {
    "ID": 35652,
    "LON": -35.823,
    "LAT": -9.5695,
    "NAME": "Satuba",
    "CLASS": "Sede Municipal",
    "STATE": "ALAGOAS",
    "ANNUAL": 5360,
    "JAN": 6047,
    "FEB": 6015,
    "MAR": 5950,
    "APR": 5087,
    "MAY": 4306,
    "JUN": 4008,
    "JUL": 4137,
    "AUG": 4761,
    "SEP": 5515,
    "OCT": 5875,
    "NOV": 6307,
    "DEC": 6310
  },
  {
    "ID": 35652,
    "LON": -35.8235,
    "LAT": -9.6041,
    "NAME": "Santa Luzia do Norte",
    "CLASS": "Sede Municipal",
    "STATE": "ALAGOAS",
    "ANNUAL": 5360,
    "JAN": 6047,
    "FEB": 6015,
    "MAR": 5950,
    "APR": 5087,
    "MAY": 4306,
    "JUN": 4008,
    "JUL": 4137,
    "AUG": 4761,
    "SEP": 5515,
    "OCT": 5875,
    "NOV": 6307,
    "DEC": 6310
  },
  {
    "ID": 35652,
    "LON": -35.7997,
    "LAT": -9.6376,
    "NAME": "Coqueiro Seco",
    "CLASS": "Sede Municipal",
    "STATE": "ALAGOAS",
    "ANNUAL": 5360,
    "JAN": 6047,
    "FEB": 6015,
    "MAR": 5950,
    "APR": 5087,
    "MAY": 4306,
    "JUN": 4008,
    "JUL": 4137,
    "AUG": 4761,
    "SEP": 5515,
    "OCT": 5875,
    "NOV": 6307,
    "DEC": 6310
  },
  {
    "ID": 36003,
    "LON": -37.827,
    "LAT": -9.5037,
    "NAME": "Olho d'Água do Casado",
    "CLASS": "Sede Municipal",
    "STATE": "ALAGOAS",
    "ANNUAL": 5484,
    "JAN": 6316,
    "FEB": 6084,
    "MAR": 5978,
    "APR": 5329,
    "MAY": 4468,
    "JUN": 4079,
    "JUL": 4194,
    "AUG": 4844,
    "SEP": 5684,
    "OCT": 5958,
    "NOV": 6486,
    "DEC": 6385
  },
  {
    "ID": 36007,
    "LON": -37.4579,
    "LAT": -9.4703,
    "NAME": "Senador Rui Palmeira",
    "CLASS": "Sede Municipal",
    "STATE": "ALAGOAS",
    "ANNUAL": 5423,
    "JAN": 6168,
    "FEB": 6003,
    "MAR": 5943,
    "APR": 5255,
    "MAY": 4380,
    "JUN": 4013,
    "JUL": 4145,
    "AUG": 4775,
    "SEP": 5613,
    "OCT": 5954,
    "NOV": 6485,
    "DEC": 6343
  },
  {
    "ID": 36008,
    "LON": -37.3759,
    "LAT": -9.4837,
    "NAME": "Carneiros",
    "CLASS": "Sede Municipal",
    "STATE": "ALAGOAS",
    "ANNUAL": 5434,
    "JAN": 6139,
    "FEB": 5962,
    "MAR": 5987,
    "APR": 5303,
    "MAY": 4384,
    "JUN": 4013,
    "JUL": 4138,
    "AUG": 4781,
    "SEP": 5630,
    "OCT": 5980,
    "NOV": 6547,
    "DEC": 6339
  },
  {
    "ID": 36009,
    "LON": -37.2958,
    "LAT": -9.5335,
    "NAME": "Olho d'Água das Flores",
    "CLASS": "Sede Municipal",
    "STATE": "ALAGOAS",
    "ANNUAL": 5415,
    "JAN": 6141,
    "FEB": 5938,
    "MAR": 6010,
    "APR": 5270,
    "MAY": 4375,
    "JUN": 3992,
    "JUL": 4108,
    "AUG": 4728,
    "SEP": 5572,
    "OCT": 5955,
    "NOV": 6542,
    "DEC": 6347
  },
  {
    "ID": 36010,
    "LON": -37.1912,
    "LAT": -9.5181,
    "NAME": "Olivença",
    "CLASS": "Sede Municipal",
    "STATE": "ALAGOAS",
    "ANNUAL": 5384,
    "JAN": 6180,
    "FEB": 5922,
    "MAR": 5972,
    "APR": 5198,
    "MAY": 4341,
    "JUN": 3965,
    "JUL": 4086,
    "AUG": 4661,
    "SEP": 5507,
    "OCT": 5936,
    "NOV": 6502,
    "DEC": 6339
  },
  {
    "ID": 36012,
    "LON": -36.9869,
    "LAT": -9.5339,
    "NAME": "Major Isidoro",
    "CLASS": "Sede Municipal",
    "STATE": "ALAGOAS",
    "ANNUAL": 5361,
    "JAN": 6127,
    "FEB": 5828,
    "MAR": 5917,
    "APR": 5193,
    "MAY": 4316,
    "JUN": 3956,
    "JUL": 4094,
    "AUG": 4669,
    "SEP": 5503,
    "OCT": 5893,
    "NOV": 6468,
    "DEC": 6370
  },
  {
    "ID": 36015,
    "LON": -36.6375,
    "LAT": -9.5381,
    "NAME": "Igaci",
    "CLASS": "Sede Municipal",
    "STATE": "ALAGOAS",
    "ANNUAL": 5364,
    "JAN": 6078,
    "FEB": 5861,
    "MAR": 5919,
    "APR": 5194,
    "MAY": 4310,
    "JUN": 3950,
    "JUL": 4073,
    "AUG": 4703,
    "SEP": 5539,
    "OCT": 5883,
    "NOV": 6470,
    "DEC": 6386
  },
  {
    "ID": 36017,
    "LON": -36.4334,
    "LAT": -9.5348,
    "NAME": "Tanque d'Arca",
    "CLASS": "Sede Municipal",
    "STATE": "ALAGOAS",
    "ANNUAL": 5285,
    "JAN": 5992,
    "FEB": 5840,
    "MAR": 5816,
    "APR": 5108,
    "MAY": 4247,
    "JUN": 3840,
    "JUL": 3941,
    "AUG": 4591,
    "SEP": 5464,
    "OCT": 5826,
    "NOV": 6426,
    "DEC": 6329
  },
  {
    "ID": 36019,
    "LON": -36.2921,
    "LAT": -9.4743,
    "NAME": "Pindoba",
    "CLASS": "Sede Municipal",
    "STATE": "ALAGOAS",
    "ANNUAL": 5143,
    "JAN": 5814,
    "FEB": 5734,
    "MAR": 5748,
    "APR": 5014,
    "MAY": 4166,
    "JUN": 3751,
    "JUL": 3885,
    "AUG": 4431,
    "SEP": 5283,
    "OCT": 5623,
    "NOV": 6158,
    "DEC": 6113
  },
  {
    "ID": 36021,
    "LON": -36.0088,
    "LAT": -9.5123,
    "NAME": "Atalaia",
    "CLASS": "Sede Municipal",
    "STATE": "ALAGOAS",
    "ANNUAL": 5212,
    "JAN": 5873,
    "FEB": 5794,
    "MAR": 5793,
    "APR": 5099,
    "MAY": 4245,
    "JUN": 3920,
    "JUL": 4003,
    "AUG": 4579,
    "SEP": 5379,
    "OCT": 5612,
    "NOV": 6115,
    "DEC": 6132
  },
  {
    "ID": 36023,
    "LON": -35.8397,
    "LAT": -9.4783,
    "NAME": "Rio Largo",
    "CLASS": "Sede Municipal",
    "STATE": "ALAGOAS",
    "ANNUAL": 5243,
    "JAN": 5897,
    "FEB": 5869,
    "MAR": 5826,
    "APR": 5028,
    "MAY": 4216,
    "JUN": 3955,
    "JUL": 4055,
    "AUG": 4639,
    "SEP": 5399,
    "OCT": 5694,
    "NOV": 6186,
    "DEC": 6151
  },
  {
    "ID": 36026,
    "LON": -35.5523,
    "LAT": -9.4636,
    "NAME": "Paripueira",
    "CLASS": "Sede Municipal",
    "STATE": "ALAGOAS",
    "ANNUAL": 5546,
    "JAN": 6166,
    "FEB": 6148,
    "MAR": 6157,
    "APR": 5252,
    "MAY": 4478,
    "JUN": 4165,
    "JUL": 4304,
    "AUG": 5007,
    "SEP": 5798,
    "OCT": 6096,
    "NOV": 6490,
    "DEC": 6494
  },
  {
    "ID": 36380,
    "LON": -37.999,
    "LAT": -9.3858,
    "NAME": "Delmiro Gouveia",
    "CLASS": "Sede Municipal",
    "STATE": "ALAGOAS",
    "ANNUAL": 5467,
    "JAN": 6317,
    "FEB": 6064,
    "MAR": 5961,
    "APR": 5278,
    "MAY": 4437,
    "JUN": 4022,
    "JUL": 4161,
    "AUG": 4780,
    "SEP": 5686,
    "OCT": 5993,
    "NOV": 6511,
    "DEC": 6389
  },
  {
    "ID": 36387,
    "LON": -37.2483,
    "LAT": -9.3704,
    "NAME": "Santana do Ipanema",
    "CLASS": "Sede Municipal",
    "STATE": "ALAGOAS",
    "ANNUAL": 5462,
    "JAN": 6206,
    "FEB": 5996,
    "MAR": 6061,
    "APR": 5305,
    "MAY": 4413,
    "JUN": 4011,
    "JUL": 4134,
    "AUG": 4760,
    "SEP": 5616,
    "OCT": 6052,
    "NOV": 6567,
    "DEC": 6422
  },
  {
    "ID": 36389,
    "LON": -37.0896,
    "LAT": -9.3874,
    "NAME": "Dois Riachos",
    "CLASS": "Sede Municipal",
    "STATE": "ALAGOAS",
    "ANNUAL": 5415,
    "JAN": 6185,
    "FEB": 5924,
    "MAR": 5955,
    "APR": 5239,
    "MAY": 4381,
    "JUN": 3964,
    "JUL": 4119,
    "AUG": 4744,
    "SEP": 5595,
    "OCT": 5979,
    "NOV": 6487,
    "DEC": 6412
  },
  {
    "ID": 36390,
    "LON": -36.9914,
    "LAT": -9.4016,
    "NAME": "Cacimbinhas",
    "CLASS": "Sede Municipal",
    "STATE": "ALAGOAS",
    "ANNUAL": 5381,
    "JAN": 6101,
    "FEB": 5881,
    "MAR": 5913,
    "APR": 5183,
    "MAY": 4355,
    "JUN": 3949,
    "JUL": 4113,
    "AUG": 4707,
    "SEP": 5570,
    "OCT": 5929,
    "NOV": 6472,
    "DEC": 6399
  },
  {
    "ID": 36392,
    "LON": -36.76,
    "LAT": -9.389,
    "NAME": "Estrela de Alagoas",
    "CLASS": "Sede Municipal",
    "STATE": "ALAGOAS",
    "ANNUAL": 5447,
    "JAN": 6122,
    "FEB": 5947,
    "MAR": 5972,
    "APR": 5259,
    "MAY": 4355,
    "JUN": 3971,
    "JUL": 4116,
    "AUG": 4807,
    "SEP": 5721,
    "OCT": 6041,
    "NOV": 6588,
    "DEC": 6468
  },
  {
    "ID": 36393,
    "LON": -36.6324,
    "LAT": -9.4113,
    "NAME": "Palmeira dos Índios",
    "CLASS": "Sede Municipal",
    "STATE": "ALAGOAS",
    "ANNUAL": 5384,
    "JAN": 6048,
    "FEB": 5875,
    "MAR": 5923,
    "APR": 5216,
    "MAY": 4320,
    "JUN": 3928,
    "JUL": 4064,
    "AUG": 4744,
    "SEP": 5610,
    "OCT": 5961,
    "NOV": 6520,
    "DEC": 6397
  },
  {
    "ID": 36396,
    "LON": -36.3884,
    "LAT": -9.4478,
    "NAME": "Mar Vermelho",
    "CLASS": "Sede Municipal",
    "STATE": "ALAGOAS",
    "ANNUAL": 5234,
    "JAN": 5922,
    "FEB": 5837,
    "MAR": 5813,
    "APR": 5075,
    "MAY": 4220,
    "JUN": 3770,
    "JUL": 3908,
    "AUG": 4517,
    "SEP": 5398,
    "OCT": 5737,
    "NOV": 6348,
    "DEC": 6263
  },
  {
    "ID": 36396,
    "LON": -36.3759,
    "LAT": -9.3705,
    "NAME": "Paulo Jacinto",
    "CLASS": "Sede Municipal",
    "STATE": "ALAGOAS",
    "ANNUAL": 5234,
    "JAN": 5922,
    "FEB": 5837,
    "MAR": 5813,
    "APR": 5075,
    "MAY": 4220,
    "JUN": 3770,
    "JUL": 3908,
    "AUG": 4517,
    "SEP": 5398,
    "OCT": 5737,
    "NOV": 6348,
    "DEC": 6263
  },
  {
    "ID": 36397,
    "LON": -36.2423,
    "LAT": -9.3719,
    "NAME": "Viçosa",
    "CLASS": "Sede Municipal",
    "STATE": "ALAGOAS",
    "ANNUAL": 5193,
    "JAN": 5856,
    "FEB": 5820,
    "MAR": 5789,
    "APR": 5092,
    "MAY": 4190,
    "JUN": 3771,
    "JUL": 3916,
    "AUG": 4479,
    "SEP": 5325,
    "OCT": 5668,
    "NOV": 6227,
    "DEC": 6183
  },
  {
    "ID": 36398,
    "LON": -36.1562,
    "LAT": -9.3998,
    "NAME": "Cajueiro",
    "CLASS": "Sede Municipal",
    "STATE": "ALAGOAS",
    "ANNUAL": 5109,
    "JAN": 5758,
    "FEB": 5670,
    "MAR": 5681,
    "APR": 5067,
    "MAY": 4194,
    "JUN": 3786,
    "JUL": 3878,
    "AUG": 4414,
    "SEP": 5237,
    "OCT": 5498,
    "NOV": 6085,
    "DEC": 6034
  },
  {
    "ID": 36399,
    "LON": -36.0829,
    "LAT": -9.4155,
    "NAME": "Capela",
    "CLASS": "Sede Municipal",
    "STATE": "ALAGOAS",
    "ANNUAL": 5153,
    "JAN": 5778,
    "FEB": 5673,
    "MAR": 5736,
    "APR": 5048,
    "MAY": 4201,
    "JUN": 3836,
    "JUL": 3923,
    "AUG": 4497,
    "SEP": 5334,
    "OCT": 5583,
    "NOV": 6137,
    "DEC": 6091
  },
  {
    "ID": 36401,
    "LON": -35.8395,
    "LAT": -9.3943,
    "NAME": "Messias",
    "CLASS": "Sede Municipal",
    "STATE": "ALAGOAS",
    "ANNUAL": 5219,
    "JAN": 5871,
    "FEB": 5833,
    "MAR": 5841,
    "APR": 5057,
    "MAY": 4232,
    "JUN": 3895,
    "JUL": 4002,
    "AUG": 4573,
    "SEP": 5388,
    "OCT": 5671,
    "NOV": 6161,
    "DEC": 6107
  },
  {
    "ID": 36404,
    "LON": -35.5104,
    "LAT": -9.4027,
    "NAME": "Barra de Santo Antônio",
    "CLASS": "Sede Municipal",
    "STATE": "ALAGOAS",
    "ANNUAL": 5434,
    "JAN": 6085,
    "FEB": 6032,
    "MAR": 6105,
    "APR": 5180,
    "MAY": 4414,
    "JUN": 4082,
    "JUL": 4194,
    "AUG": 4858,
    "SEP": 5555,
    "OCT": 5923,
    "NOV": 6381,
    "DEC": 6403
  },
  {
    "ID": 36757,
    "LON": -37.9991,
    "LAT": -9.2568,
    "NAME": "Pariconha",
    "CLASS": "Sede Municipal",
    "STATE": "ALAGOAS",
    "ANNUAL": 5524,
    "JAN": 6315,
    "FEB": 6115,
    "MAR": 5983,
    "APR": 5364,
    "MAY": 4531,
    "JUN": 4025,
    "JUL": 4226,
    "AUG": 4850,
    "SEP": 5777,
    "OCT": 6086,
    "NOV": 6596,
    "DEC": 6418
  },
  {
    "ID": 36758,
    "LON": -37.9383,
    "LAT": -9.2624,
    "NAME": "Água Branca",
    "CLASS": "Sede Municipal",
    "STATE": "ALAGOAS",
    "ANNUAL": 5471,
    "JAN": 6272,
    "FEB": 6053,
    "MAR": 5996,
    "APR": 5295,
    "MAY": 4453,
    "JUN": 3982,
    "JUL": 4090,
    "AUG": 4805,
    "SEP": 5716,
    "OCT": 6028,
    "NOV": 6576,
    "DEC": 6388
  },
  {
    "ID": 36765,
    "LON": -37.2848,
    "LAT": -9.3049,
    "NAME": "Poço das Trincheiras",
    "CLASS": "Sede Municipal",
    "STATE": "ALAGOAS",
    "ANNUAL": 5455,
    "JAN": 6174,
    "FEB": 5955,
    "MAR": 6005,
    "APR": 5302,
    "MAY": 4397,
    "JUN": 3956,
    "JUL": 4176,
    "AUG": 4735,
    "SEP": 5754,
    "OCT": 6084,
    "NOV": 6553,
    "DEC": 6367
  },
  {
    "ID": 36769,
    "LON": -36.866,
    "LAT": -9.3078,
    "NAME": "Minador do Negrão",
    "CLASS": "Sede Municipal",
    "STATE": "ALAGOAS",
    "ANNUAL": 5405,
    "JAN": 6084,
    "FEB": 5924,
    "MAR": 5917,
    "APR": 5264,
    "MAY": 4374,
    "JUN": 3951,
    "JUL": 4085,
    "AUG": 4728,
    "SEP": 5631,
    "OCT": 6000,
    "NOV": 6480,
    "DEC": 6416
  },
  {
    "ID": 36773,
    "LON": -36.4695,
    "LAT": -9.3204,
    "NAME": "Quebrangulo",
    "CLASS": "Sede Municipal",
    "STATE": "ALAGOAS",
    "ANNUAL": 5273,
    "JAN": 5955,
    "FEB": 5861,
    "MAR": 5834,
    "APR": 5181,
    "MAY": 4246,
    "JUN": 3754,
    "JUL": 3908,
    "AUG": 4536,
    "SEP": 5438,
    "OCT": 5828,
    "NOV": 6433,
    "DEC": 6301
  },
  {
    "ID": 36775,
    "LON": -36.2986,
    "LAT": -9.256,
    "NAME": "Chã Preta",
    "CLASS": "Sede Municipal",
    "STATE": "ALAGOAS",
    "ANNUAL": 5174,
    "JAN": 5876,
    "FEB": 5766,
    "MAR": 5746,
    "APR": 5087,
    "MAY": 4197,
    "JUN": 3735,
    "JUL": 3828,
    "AUG": 4469,
    "SEP": 5300,
    "OCT": 5631,
    "NOV": 6254,
    "DEC": 6203
  },
  {
    "ID": 36778,
    "LON": -35.9431,
    "LAT": -9.3073,
    "NAME": "Murici",
    "CLASS": "Sede Municipal",
    "STATE": "ALAGOAS",
    "ANNUAL": 5188,
    "JAN": 5814,
    "FEB": 5823,
    "MAR": 5826,
    "APR": 5076,
    "MAY": 4182,
    "JUN": 3847,
    "JUL": 3905,
    "AUG": 4566,
    "SEP": 5354,
    "OCT": 5643,
    "NOV": 6124,
    "DEC": 6090
  },
  {
    "ID": 36780,
    "LON": -35.7142,
    "LAT": -9.2732,
    "NAME": "Flexeiras",
    "CLASS": "Sede Municipal",
    "STATE": "ALAGOAS",
    "ANNUAL": 5113,
    "JAN": 5716,
    "FEB": 5707,
    "MAR": 5729,
    "APR": 4997,
    "MAY": 4138,
    "JUN": 3830,
    "JUL": 3929,
    "AUG": 4473,
    "SEP": 5263,
    "OCT": 5504,
    "NOV": 6062,
    "DEC": 6008
  },
  {
    "ID": 36782,
    "LON": -35.5608,
    "LAT": -9.3186,
    "NAME": "São Luís do Quitunde",
    "CLASS": "Sede Municipal",
    "STATE": "ALAGOAS",
    "ANNUAL": 5330,
    "JAN": 5987,
    "FEB": 5922,
    "MAR": 5988,
    "APR": 5115,
    "MAY": 4336,
    "JUN": 4080,
    "JUL": 4107,
    "AUG": 4796,
    "SEP": 5469,
    "OCT": 5737,
    "NOV": 6190,
    "DEC": 6232
  },
  {
    "ID": 36784,
    "LON": -35.3765,
    "LAT": -9.2654,
    "NAME": "São Miguel dos Milagres",
    "CLASS": "Sede Municipal",
    "STATE": "ALAGOAS",
    "ANNUAL": 5595,
    "JAN": 6273,
    "FEB": 6118,
    "MAR": 6238,
    "APR": 5333,
    "MAY": 4511,
    "JUN": 4196,
    "JUL": 4346,
    "AUG": 5092,
    "SEP": 5819,
    "OCT": 6133,
    "NOV": 6525,
    "DEC": 6557
  },
  {
    "ID": 37138,
    "LON": -37.7512,
    "LAT": -9.2264,
    "NAME": "Inhapi",
    "CLASS": "Sede Municipal",
    "STATE": "ALAGOAS",
    "ANNUAL": 5525,
    "JAN": 6360,
    "FEB": 6124,
    "MAR": 6057,
    "APR": 5343,
    "MAY": 4446,
    "JUN": 3947,
    "JUL": 4116,
    "AUG": 4842,
    "SEP": 5757,
    "OCT": 6175,
    "NOV": 6670,
    "DEC": 6470
  },
  {
    "ID": 37142,
    "LON": -37.3559,
    "LAT": -9.1593,
    "NAME": "Ouro Branco",
    "CLASS": "Sede Municipal",
    "STATE": "ALAGOAS",
    "ANNUAL": 5487,
    "JAN": 6221,
    "FEB": 6029,
    "MAR": 6022,
    "APR": 5305,
    "MAY": 4404,
    "JUN": 4010,
    "JUL": 4216,
    "AUG": 4824,
    "SEP": 5745,
    "OCT": 6141,
    "NOV": 6511,
    "DEC": 6417
  },
  {
    "ID": 37142,
    "LON": -37.3527,
    "LAT": -9.2309,
    "NAME": "Maravilha",
    "CLASS": "Sede Municipal",
    "STATE": "ALAGOAS",
    "ANNUAL": 5487,
    "JAN": 6221,
    "FEB": 6029,
    "MAR": 6022,
    "APR": 5305,
    "MAY": 4404,
    "JUN": 4010,
    "JUL": 4216,
    "AUG": 4824,
    "SEP": 5745,
    "OCT": 6141,
    "NOV": 6511,
    "DEC": 6417
  },
  {
    "ID": 37153,
    "LON": -36.2209,
    "LAT": -9.1705,
    "NAME": "Santana do Mundaú",
    "CLASS": "Sede Municipal",
    "STATE": "ALAGOAS",
    "ANNUAL": 5130,
    "JAN": 5843,
    "FEB": 5724,
    "MAR": 5696,
    "APR": 5092,
    "MAY": 4165,
    "JUN": 3687,
    "JUL": 3790,
    "AUG": 4361,
    "SEP": 5270,
    "OCT": 5600,
    "NOV": 6164,
    "DEC": 6165
  },
  {
    "ID": 37155,
    "LON": -36.0226,
    "LAT": -9.1596,
    "NAME": "União dos Palmares",
    "CLASS": "Sede Municipal",
    "STATE": "ALAGOAS",
    "ANNUAL": 5171,
    "JAN": 5781,
    "FEB": 5755,
    "MAR": 5725,
    "APR": 5079,
    "MAY": 4217,
    "JUN": 3814,
    "JUL": 3893,
    "AUG": 4505,
    "SEP": 5392,
    "OCT": 5643,
    "NOV": 6139,
    "DEC": 6108
  },
  {
    "ID": 37155,
    "LON": -36.0164,
    "LAT": -9.2339,
    "NAME": "Branquinha",
    "CLASS": "Sede Municipal",
    "STATE": "ALAGOAS",
    "ANNUAL": 5171,
    "JAN": 5781,
    "FEB": 5755,
    "MAR": 5725,
    "APR": 5079,
    "MAY": 4217,
    "JUN": 3814,
    "JUL": 3893,
    "AUG": 4505,
    "SEP": 5392,
    "OCT": 5643,
    "NOV": 6139,
    "DEC": 6108
  },
  {
    "ID": 37160,
    "LON": -35.5246,
    "LAT": -9.1548,
    "NAME": "Matriz de Camaragibe",
    "CLASS": "Sede Municipal",
    "STATE": "ALAGOAS",
    "ANNUAL": 5221,
    "JAN": 5900,
    "FEB": 5774,
    "MAR": 5846,
    "APR": 4990,
    "MAY": 4300,
    "JUN": 3962,
    "JUL": 4038,
    "AUG": 4656,
    "SEP": 5368,
    "OCT": 5617,
    "NOV": 6092,
    "DEC": 6104
  },
  {
    "ID": 37161,
    "LON": -35.4882,
    "LAT": -9.2396,
    "NAME": "Passo de Camaragibe",
    "CLASS": "Sede Municipal",
    "STATE": "ALAGOAS",
    "ANNUAL": 5284,
    "JAN": 5968,
    "FEB": 5822,
    "MAR": 5933,
    "APR": 5004,
    "MAY": 4318,
    "JUN": 3982,
    "JUL": 4082,
    "AUG": 4718,
    "SEP": 5423,
    "OCT": 5748,
    "NOV": 6201,
    "DEC": 6213
  },
  {
    "ID": 37162,
    "LON": -35.3052,
    "LAT": -9.1605,
    "NAME": "Porto de Pedras",
    "CLASS": "Sede Municipal",
    "STATE": "ALAGOAS",
    "ANNUAL": 5418,
    "JAN": 6024,
    "FEB": 5985,
    "MAR": 6118,
    "APR": 5133,
    "MAY": 4399,
    "JUN": 4138,
    "JUL": 4201,
    "AUG": 4948,
    "SEP": 5587,
    "OCT": 5928,
    "NOV": 6292,
    "DEC": 6267
  },
  {
    "ID": 37516,
    "LON": -37.7312,
    "LAT": -9.1192,
    "NAME": "Mata Grande",
    "CLASS": "Sede Municipal",
    "STATE": "ALAGOAS",
    "ANNUAL": 5617,
    "JAN": 6423,
    "FEB": 6143,
    "MAR": 6096,
    "APR": 5432,
    "MAY": 4563,
    "JUN": 4058,
    "JUL": 4229,
    "AUG": 5011,
    "SEP": 5932,
    "OCT": 6276,
    "NOV": 6695,
    "DEC": 6547
  },
  {
    "ID": 37517,
    "LON": -37.6028,
    "LAT": -9.1164,
    "NAME": "Canapi",
    "CLASS": "Sede Municipal",
    "STATE": "ALAGOAS",
    "ANNUAL": 5531,
    "JAN": 6317,
    "FEB": 6077,
    "MAR": 6087,
    "APR": 5391,
    "MAY": 4470,
    "JUN": 3965,
    "JUL": 4148,
    "AUG": 4781,
    "SEP": 5758,
    "OCT": 6185,
    "NOV": 6703,
    "DEC": 6492
  },
  {
    "ID": 37536,
    "LON": -35.7477,
    "LAT": -9.1332,
    "NAME": "Joaquim Gomes",
    "CLASS": "Sede Municipal",
    "STATE": "ALAGOAS",
    "ANNUAL": 4983,
    "JAN": 5529,
    "FEB": 5545,
    "MAR": 5634,
    "APR": 4915,
    "MAY": 4089,
    "JUN": 3773,
    "JUL": 3793,
    "AUG": 4388,
    "SEP": 5141,
    "OCT": 5329,
    "NOV": 5874,
    "DEC": 5782
  },
  {
    "ID": 37540,
    "LON": -35.3989,
    "LAT": -9.0524,
    "NAME": "Porto Calvo",
    "CLASS": "Sede Municipal",
    "STATE": "ALAGOAS",
    "ANNUAL": 5350,
    "JAN": 5957,
    "FEB": 5917,
    "MAR": 6044,
    "APR": 5055,
    "MAY": 4356,
    "JUN": 4085,
    "JUL": 4128,
    "AUG": 4857,
    "SEP": 5478,
    "OCT": 5837,
    "NOV": 6240,
    "DEC": 6240
  },
  {
    "ID": 37541,
    "LON": -35.2637,
    "LAT": -9.0879,
    "NAME": "Japaratinga",
    "CLASS": "Sede Municipal",
    "STATE": "ALAGOAS",
    "ANNUAL": 5518,
    "JAN": 6124,
    "FEB": 6043,
    "MAR": 6202,
    "APR": 5228,
    "MAY": 4469,
    "JUN": 4201,
    "JUL": 4277,
    "AUG": 5043,
    "SEP": 5720,
    "OCT": 6130,
    "NOV": 6378,
    "DEC": 6406
  },
  {
    "ID": 37912,
    "LON": -36.0518,
    "LAT": -9.0132,
    "NAME": "São José da Laje",
    "CLASS": "Sede Municipal",
    "STATE": "ALAGOAS",
    "ANNUAL": 5080,
    "JAN": 5718,
    "FEB": 5630,
    "MAR": 5634,
    "APR": 5020,
    "MAY": 4168,
    "JUN": 3723,
    "JUL": 3798,
    "AUG": 4434,
    "SEP": 5267,
    "OCT": 5498,
    "NOV": 6073,
    "DEC": 5993
  },
  {
    "ID": 37913,
    "LON": -35.9376,
    "LAT": -8.9787,
    "NAME": "Ibateguara",
    "CLASS": "Sede Municipal",
    "STATE": "ALAGOAS",
    "ANNUAL": 5153,
    "JAN": 5854,
    "FEB": 5809,
    "MAR": 5758,
    "APR": 5048,
    "MAY": 4127,
    "JUN": 3683,
    "JUL": 3795,
    "AUG": 4451,
    "SEP": 5355,
    "OCT": 5651,
    "NOV": 6187,
    "DEC": 6121
  },
  {
    "ID": 37920,
    "LON": -35.227,
    "LAT": -9.0079,
    "NAME": "Maragogi",
    "CLASS": "Sede Municipal",
    "STATE": "ALAGOAS",
    "ANNUAL": 5352,
    "JAN": 5958,
    "FEB": 5937,
    "MAR": 6044,
    "APR": 5106,
    "MAY": 4398,
    "JUN": 4107,
    "JUL": 4164,
    "AUG": 4884,
    "SEP": 5466,
    "OCT": 5832,
    "NOV": 6143,
    "DEC": 6189
  },
  {
    "ID": 38295,
    "LON": -35.7217,
    "LAT": -8.9185,
    "NAME": "Colônia Leopoldina",
    "CLASS": "Sede Municipal",
    "STATE": "ALAGOAS",
    "ANNUAL": 5008,
    "JAN": 5574,
    "FEB": 5600,
    "MAR": 5598,
    "APR": 4919,
    "MAY": 4144,
    "JUN": 3749,
    "JUL": 3820,
    "AUG": 4413,
    "SEP": 5170,
    "OCT": 5411,
    "NOV": 5854,
    "DEC": 5839
  },
  {
    "ID": 38296,
    "LON": -35.6643,
    "LAT": -8.9423,
    "NAME": "Novo Lino",
    "CLASS": "Sede Municipal",
    "STATE": "ALAGOAS",
    "ANNUAL": 5082,
    "JAN": 5661,
    "FEB": 5635,
    "MAR": 5639,
    "APR": 4984,
    "MAY": 4197,
    "JUN": 3880,
    "JUL": 3912,
    "AUG": 4533,
    "SEP": 5267,
    "OCT": 5513,
    "NOV": 5928,
    "DEC": 5837
  },
  {
    "ID": 38297,
    "LON": -35.5538,
    "LAT": -8.9415,
    "NAME": "Jundiá",
    "CLASS": "Sede Municipal",
    "STATE": "ALAGOAS",
    "ANNUAL": 5147,
    "JAN": 5721,
    "FEB": 5663,
    "MAR": 5731,
    "APR": 5006,
    "MAY": 4245,
    "JUN": 3940,
    "JUL": 3976,
    "AUG": 4594,
    "SEP": 5352,
    "OCT": 5605,
    "NOV": 5992,
    "DEC": 5946
  },
  {
    "ID": 38678,
    "LON": -35.5688,
    "LAT": -8.8477,
    "NAME": "Campestre",
    "CLASS": "Sede Municipal",
    "STATE": "ALAGOAS",
    "ANNUAL": 5155,
    "JAN": 5686,
    "FEB": 5648,
    "MAR": 5735,
    "APR": 5008,
    "MAY": 4232,
    "JUN": 3930,
    "JUL": 3961,
    "AUG": 4608,
    "SEP": 5397,
    "OCT": 5633,
    "NOV": 6058,
    "DEC": 5967
  },
  {
    "ID": 38679,
    "LON": -35.4594,
    "LAT": -8.8399,
    "NAME": "Jacuípe",
    "CLASS": "Sede Municipal",
    "STATE": "ALAGOAS",
    "ANNUAL": 5185,
    "JAN": 5706,
    "FEB": 5691,
    "MAR": 5754,
    "APR": 5012,
    "MAY": 4236,
    "JUN": 3971,
    "JUL": 3996,
    "AUG": 4640,
    "SEP": 5436,
    "OCT": 5663,
    "NOV": 6113,
    "DEC": 5998
  },
  {
    "ID": 65129,
    "LON": -52.4255,
    "LAT": -0.9296,
    "NAME": "Vitória do Jari",
    "CLASS": "Sede Municipal",
    "STATE": "AMAPÁ",
    "ANNUAL": 4667,
    "JAN": 4444,
    "FEB": 4309,
    "MAR": 4333,
    "APR": 4338,
    "MAY": 4544,
    "JUN": 4671,
    "JUL": 4745,
    "AUG": 5009,
    "SEP": 5098,
    "OCT": 5076,
    "NOV": 4930,
    "DEC": 4500
  },
  {
    "ID": 65366,
    "LON": -52.5227,
    "LAT": -0.8379,
    "NAME": "Laranjal do Jari",
    "CLASS": "Sede Municipal",
    "STATE": "AMAPÁ",
    "ANNUAL": 4658,
    "JAN": 4352,
    "FEB": 4349,
    "MAR": 4363,
    "APR": 4356,
    "MAY": 4524,
    "JUN": 4695,
    "JUL": 4722,
    "AUG": 5030,
    "SEP": 5118,
    "OCT": 5063,
    "NOV": 4893,
    "DEC": 4431
  },
  {
    "ID": 66931,
    "LON": -51.2895,
    "LAT": -0.1137,
    "NAME": "Mazagão",
    "CLASS": "Sede Municipal",
    "STATE": "AMAPÁ",
    "ANNUAL": 4845,
    "JAN": 4566,
    "FEB": 4245,
    "MAR": 4208,
    "APR": 4229,
    "MAY": 4635,
    "JUN": 4905,
    "JUL": 5074,
    "AUG": 5307,
    "SEP": 5491,
    "OCT": 5401,
    "NOV": 5288,
    "DEC": 4792
  },
  {
    "ID": 67143,
    "LON": -51.1733,
    "LAT": -0.0458,
    "NAME": "Santana",
    "CLASS": "Sede Municipal",
    "STATE": "AMAPÁ",
    "ANNUAL": 4832,
    "JAN": 4531,
    "FEB": 4191,
    "MAR": 4117,
    "APR": 4170,
    "MAY": 4627,
    "JUN": 4902,
    "JUL": 4991,
    "AUG": 5370,
    "SEP": 5563,
    "OCT": 5407,
    "NOV": 5334,
    "DEC": 4785
  },
  {
    "ID": 67144,
    "LON": -51.0702,
    "LAT": 0.0342,
    "NAME": "Macapá",
    "CLASS": "Capital Estadual",
    "STATE": "AMAPÁ",
    "ANNUAL": 4944,
    "JAN": 4714,
    "FEB": 4317,
    "MAR": 4232,
    "APR": 4286,
    "MAY": 4710,
    "JUN": 4973,
    "JUL": 5090,
    "AUG": 5477,
    "SEP": 5618,
    "OCT": 5483,
    "NOV": 5456,
    "DEC": 4980
  },
  {
    "ID": 68381,
    "LON": -50.6991,
    "LAT": 0.6056,
    "NAME": "Itaubal",
    "CLASS": "Sede Municipal",
    "STATE": "AMAPÁ",
    "ANNUAL": 4735,
    "JAN": 4304,
    "FEB": 4042,
    "MAR": 3977,
    "APR": 3990,
    "MAY": 4450,
    "JUN": 4823,
    "JUL": 5047,
    "AUG": 5461,
    "SEP": 5518,
    "OCT": 5448,
    "NOV": 5133,
    "DEC": 4623
  },
  {
    "ID": 68572,
    "LON": -51.4041,
    "LAT": 0.708,
    "NAME": "Porto Grande",
    "CLASS": "Sede Municipal",
    "STATE": "AMAPÁ",
    "ANNUAL": 4548,
    "JAN": 4169,
    "FEB": 4044,
    "MAR": 4042,
    "APR": 4068,
    "MAY": 4326,
    "JUN": 4531,
    "JUL": 4680,
    "AUG": 5059,
    "SEP": 5297,
    "OCT": 5138,
    "NOV": 4898,
    "DEC": 4323
  },
  {
    "ID": 68759,
    "LON": -51.9507,
    "LAT": 0.7771,
    "NAME": "Pedra Branca do Amapari",
    "CLASS": "Sede Municipal",
    "STATE": "AMAPÁ",
    "ANNUAL": 4558,
    "JAN": 4155,
    "FEB": 4027,
    "MAR": 4083,
    "APR": 4147,
    "MAY": 4381,
    "JUN": 4509,
    "JUL": 4680,
    "AUG": 5038,
    "SEP": 5289,
    "OCT": 5128,
    "NOV": 4935,
    "DEC": 4321
  },
  {
    "ID": 68946,
    "LON": -52.004,
    "LAT": 0.901,
    "NAME": "Serra do Navio",
    "CLASS": "Sede Municipal",
    "STATE": "AMAPÁ",
    "ANNUAL": 4575,
    "JAN": 4178,
    "FEB": 4009,
    "MAR": 4103,
    "APR": 4175,
    "MAY": 4383,
    "JUN": 4481,
    "JUL": 4676,
    "AUG": 5028,
    "SEP": 5330,
    "OCT": 5211,
    "NOV": 4945,
    "DEC": 4382
  },
  {
    "ID": 68955,
    "LON": -51.1799,
    "LAT": 0.8569,
    "NAME": "Ferreira Gomes",
    "CLASS": "Sede Municipal",
    "STATE": "AMAPÁ",
    "ANNUAL": 4688,
    "JAN": 4230,
    "FEB": 4004,
    "MAR": 4047,
    "APR": 4089,
    "MAY": 4428,
    "JUN": 4684,
    "JUL": 4888,
    "AUG": 5357,
    "SEP": 5477,
    "OCT": 5436,
    "NOV": 5149,
    "DEC": 4465
  },
  {
    "ID": 69144,
    "LON": -50.798,
    "LAT": 0.969,
    "NAME": "Cutias",
    "CLASS": "Sede Municipal",
    "STATE": "AMAPÁ",
    "ANNUAL": 4719,
    "JAN": 4301,
    "FEB": 4015,
    "MAR": 3931,
    "APR": 4015,
    "MAY": 4438,
    "JUN": 4793,
    "JUL": 5030,
    "AUG": 5425,
    "SEP": 5513,
    "OCT": 5450,
    "NOV": 5200,
    "DEC": 4517
  },
  {
    "ID": 70034,
    "LON": -50.9091,
    "LAT": 1.5062,
    "NAME": "Tartarugalzinho",
    "CLASS": "Sede Municipal",
    "STATE": "AMAPÁ",
    "ANNUAL": 4595,
    "JAN": 4138,
    "FEB": 3916,
    "MAR": 3941,
    "APR": 3952,
    "MAY": 4347,
    "JUN": 4624,
    "JUL": 4869,
    "AUG": 5254,
    "SEP": 5402,
    "OCT": 5267,
    "NOV": 5114,
    "DEC": 4318
  },
  {
    "ID": 70357,
    "LON": -50.7839,
    "LAT": 1.7448,
    "NAME": "Pracuúba",
    "CLASS": "Sede Municipal",
    "STATE": "AMAPÁ",
    "ANNUAL": 4647,
    "JAN": 4206,
    "FEB": 3954,
    "MAR": 3922,
    "APR": 3933,
    "MAY": 4345,
    "JUN": 4553,
    "JUL": 4863,
    "AUG": 5247,
    "SEP": 5537,
    "OCT": 5446,
    "NOV": 5235,
    "DEC": 4528
  },
  {
    "ID": 70847,
    "LON": -50.796,
    "LAT": 2.0523,
    "NAME": "Amapá",
    "CLASS": "Sede Municipal",
    "STATE": "AMAPÁ",
    "ANNUAL": 4792,
    "JAN": 4256,
    "FEB": 4117,
    "MAR": 4110,
    "APR": 4171,
    "MAY": 4581,
    "JUN": 4833,
    "JUL": 5105,
    "AUG": 5477,
    "SEP": 5544,
    "OCT": 5440,
    "NOV": 5211,
    "DEC": 4655
  },
  {
    "ID": 71184,
    "LON": -50.9505,
    "LAT": 2.4947,
    "NAME": "Calçoene",
    "CLASS": "Sede Municipal",
    "STATE": "AMAPÁ",
    "ANNUAL": 4773,
    "JAN": 4135,
    "FEB": 4037,
    "MAR": 4068,
    "APR": 4200,
    "MAY": 4602,
    "JUN": 4919,
    "JUL": 5175,
    "AUG": 5488,
    "SEP": 5534,
    "OCT": 5435,
    "NOV": 5178,
    "DEC": 4510
  },
  {
    "ID": 71943,
    "LON": -51.8335,
    "LAT": 3.8404,
    "NAME": "Oiapoque",
    "CLASS": "Sede Municipal",
    "STATE": "AMAPÁ",
    "ANNUAL": 4705,
    "JAN": 4014,
    "FEB": 4039,
    "MAR": 3957,
    "APR": 4447,
    "MAY": 4390,
    "JUN": 4657,
    "JUL": 5002,
    "AUG": 5423,
    "SEP": 5727,
    "OCT": 5432,
    "NOV": 5112,
    "DEC": 4254
  },
  {
    "ID": 38744,
    "LON": -67.3924,
    "LAT": -8.7427,
    "NAME": "Boca do Acre",
    "CLASS": "Sede Municipal",
    "STATE": "AMAZONAS",
    "ANNUAL": 4517,
    "JAN": 4371,
    "FEB": 4527,
    "MAR": 4246,
    "APR": 4331,
    "MAY": 3920,
    "JUN": 4144,
    "JUL": 4374,
    "AUG": 4931,
    "SEP": 5086,
    "OCT": 4968,
    "NOV": 4761,
    "DEC": 4548
  },
  {
    "ID": 42630,
    "LON": -66.9925,
    "LAT": -7.7135,
    "NAME": "Pauini",
    "CLASS": "Sede Municipal",
    "STATE": "AMAZONAS",
    "ANNUAL": 4465,
    "JAN": 4226,
    "FEB": 4478,
    "MAR": 4256,
    "APR": 4249,
    "MAY": 3893,
    "JUN": 4208,
    "JUL": 4380,
    "AUG": 4969,
    "SEP": 5045,
    "OCT": 4857,
    "NOV": 4644,
    "DEC": 4383
  },
  {
    "ID": 43358,
    "LON": -72.5912,
    "LAT": -7.5384,
    "NAME": "Guajará",
    "CLASS": "Sede Municipal",
    "STATE": "AMAZONAS",
    "ANNUAL": 4663,
    "JAN": 4676,
    "FEB": 4908,
    "MAR": 4233,
    "APR": 4446,
    "MAY": 4283,
    "JUN": 4202,
    "JUL": 4354,
    "AUG": 5068,
    "SEP": 5138,
    "OCT": 5030,
    "NOV": 4949,
    "DEC": 4666
  },
  {
    "ID": 43453,
    "LON": -63.0332,
    "LAT": -7.5121,
    "NAME": "Humaitá",
    "CLASS": "Sede Municipal",
    "STATE": "AMAZONAS",
    "ANNUAL": 4498,
    "JAN": 4189,
    "FEB": 4378,
    "MAR": 4377,
    "APR": 4279,
    "MAY": 3926,
    "JUN": 4422,
    "JUL": 4523,
    "AUG": 4939,
    "SEP": 4971,
    "OCT": 4899,
    "NOV": 4660,
    "DEC": 4412
  },
  {
    "ID": 43776,
    "LON": -70.0234,
    "LAT": -7.4322,
    "NAME": "Envira",
    "CLASS": "Sede Municipal",
    "STATE": "AMAZONAS",
    "ANNUAL": 4541,
    "JAN": 4405,
    "FEB": 4705,
    "MAR": 4333,
    "APR": 4326,
    "MAY": 4012,
    "JUN": 4071,
    "JUL": 4313,
    "AUG": 4945,
    "SEP": 5156,
    "OCT": 5001,
    "NOV": 4703,
    "DEC": 4528
  },
  {
    "ID": 44222,
    "LON": -64.7952,
    "LAT": -7.2645,
    "NAME": "Lábrea",
    "CLASS": "Sede Municipal",
    "STATE": "AMAZONAS",
    "ANNUAL": 4434,
    "JAN": 4213,
    "FEB": 4390,
    "MAR": 4280,
    "APR": 4175,
    "MAY": 3820,
    "JUN": 4239,
    "JUL": 4376,
    "AUG": 4878,
    "SEP": 4969,
    "OCT": 4863,
    "NOV": 4636,
    "DEC": 4365
  },
  {
    "ID": 44662,
    "LON": -59.8852,
    "LAT": -7.1984,
    "NAME": "Apuí",
    "CLASS": "Sede Municipal",
    "STATE": "AMAZONAS",
    "ANNUAL": 4433,
    "JAN": 4062,
    "FEB": 4358,
    "MAR": 4298,
    "APR": 4041,
    "MAY": 3962,
    "JUN": 4481,
    "JUL": 4542,
    "AUG": 4960,
    "SEP": 4731,
    "OCT": 4765,
    "NOV": 4647,
    "DEC": 4351
  },
  {
    "ID": 44936,
    "LON": -71.6895,
    "LAT": -7.051,
    "NAME": "Ipixuna",
    "CLASS": "Sede Municipal",
    "STATE": "AMAZONAS",
    "ANNUAL": 4605,
    "JAN": 4526,
    "FEB": 4821,
    "MAR": 4283,
    "APR": 4410,
    "MAY": 4168,
    "JUN": 4100,
    "JUL": 4356,
    "AUG": 5052,
    "SEP": 5164,
    "OCT": 4980,
    "NOV": 4824,
    "DEC": 4577
  },
  {
    "ID": 46514,
    "LON": -69.8666,
    "LAT": -6.6572,
    "NAME": "Eirunepé",
    "CLASS": "Sede Municipal",
    "STATE": "AMAZONAS",
    "ANNUAL": 4530,
    "JAN": 4319,
    "FEB": 4743,
    "MAR": 4354,
    "APR": 4343,
    "MAY": 4047,
    "JUN": 4101,
    "JUL": 4285,
    "AUG": 4968,
    "SEP": 5110,
    "OCT": 4923,
    "NOV": 4722,
    "DEC": 4441
  },
  {
    "ID": 47339,
    "LON": -64.3957,
    "LAT": -6.5262,
    "NAME": "Canutama",
    "CLASS": "Sede Municipal",
    "STATE": "AMAZONAS",
    "ANNUAL": 4451,
    "JAN": 4217,
    "FEB": 4448,
    "MAR": 4270,
    "APR": 4228,
    "MAY": 3865,
    "JUN": 4237,
    "JUL": 4384,
    "AUG": 4938,
    "SEP": 4922,
    "OCT": 4903,
    "NOV": 4665,
    "DEC": 4339
  },
  {
    "ID": 47683,
    "LON": -68.2605,
    "LAT": -6.425,
    "NAME": "Itamarati",
    "CLASS": "Sede Municipal",
    "STATE": "AMAZONAS",
    "ANNUAL": 4463,
    "JAN": 4230,
    "FEB": 4534,
    "MAR": 4283,
    "APR": 4224,
    "MAY": 3950,
    "JUN": 4166,
    "JUL": 4272,
    "AUG": 4961,
    "SEP": 5108,
    "OCT": 4830,
    "NOV": 4631,
    "DEC": 4363
  },
  {
    "ID": 50047,
    "LON": -61.2899,
    "LAT": -5.805,
    "NAME": "Manicoré",
    "CLASS": "Sede Municipal",
    "STATE": "AMAZONAS",
    "ANNUAL": 4416,
    "JAN": 4196,
    "FEB": 4292,
    "MAR": 4272,
    "APR": 4097,
    "MAY": 3804,
    "JUN": 4287,
    "JUL": 4418,
    "AUG": 4966,
    "SEP": 4918,
    "OCT": 4766,
    "NOV": 4671,
    "DEC": 4300
  },
  {
    "ID": 50787,
    "LON": -63.1813,
    "LAT": -5.6212,
    "NAME": "Tapauá",
    "CLASS": "Sede Municipal",
    "STATE": "AMAZONAS",
    "ANNUAL": 4410,
    "JAN": 4164,
    "FEB": 4394,
    "MAR": 4259,
    "APR": 4122,
    "MAY": 3794,
    "JUN": 4180,
    "JUL": 4344,
    "AUG": 4927,
    "SEP": 4977,
    "OCT": 4865,
    "NOV": 4614,
    "DEC": 4284
  },
  {
    "ID": 52701,
    "LON": -60.3736,
    "LAT": -5.1263,
    "NAME": "Novo Aripuanã",
    "CLASS": "Sede Municipal",
    "STATE": "AMAZONAS",
    "ANNUAL": 4462,
    "JAN": 4126,
    "FEB": 4294,
    "MAR": 4268,
    "APR": 4027,
    "MAY": 3946,
    "JUN": 4370,
    "JUL": 4473,
    "AUG": 5086,
    "SEP": 5046,
    "OCT": 4891,
    "NOV": 4700,
    "DEC": 4320
  },
  {
    "ID": 53368,
    "LON": -66.9095,
    "LAT": -4.8823,
    "NAME": "Carauari",
    "CLASS": "Sede Municipal",
    "STATE": "AMAZONAS",
    "ANNUAL": 4432,
    "JAN": 4117,
    "FEB": 4503,
    "MAR": 4364,
    "APR": 4224,
    "MAY": 3846,
    "JUN": 4128,
    "JUL": 4267,
    "AUG": 4888,
    "SEP": 4957,
    "OCT": 4941,
    "NOV": 4618,
    "DEC": 4332
  },
  {
    "ID": 55078,
    "LON": -70.1911,
    "LAT": -4.3678,
    "NAME": "Atalaia do Norte",
    "CLASS": "Sede Municipal",
    "STATE": "AMAZONAS",
    "ANNUAL": 4512,
    "JAN": 4335,
    "FEB": 4674,
    "MAR": 4492,
    "APR": 4388,
    "MAY": 3984,
    "JUN": 4114,
    "JUL": 4082,
    "AUG": 4797,
    "SEP": 5085,
    "OCT": 4906,
    "NOV": 4845,
    "DEC": 4441
  },
  {
    "ID": 55079,
    "LON": -70.0346,
    "LAT": -4.3781,
    "NAME": "Benjamin Constant",
    "CLASS": "Sede Municipal",
    "STATE": "AMAZONAS",
    "ANNUAL": 4537,
    "JAN": 4368,
    "FEB": 4713,
    "MAR": 4528,
    "APR": 4406,
    "MAY": 4025,
    "JUN": 4148,
    "JUL": 4116,
    "AUG": 4857,
    "SEP": 5071,
    "OCT": 4912,
    "NOV": 4856,
    "DEC": 4438
  },
  {
    "ID": 55184,
    "LON": -59.5878,
    "LAT": -4.3919,
    "NAME": "Borba",
    "CLASS": "Sede Municipal",
    "STATE": "AMAZONAS",
    "ANNUAL": 4412,
    "JAN": 3987,
    "FEB": 4153,
    "MAR": 4120,
    "APR": 3985,
    "MAY": 3958,
    "JUN": 4296,
    "JUL": 4419,
    "AUG": 5045,
    "SEP": 5076,
    "OCT": 4970,
    "NOV": 4655,
    "DEC": 4284
  },
  {
    "ID": 55743,
    "LON": -69.9388,
    "LAT": -4.242,
    "NAME": "Tabatinga",
    "CLASS": "Sede Municipal",
    "STATE": "AMAZONAS",
    "ANNUAL": 4501,
    "JAN": 4275,
    "FEB": 4679,
    "MAR": 4508,
    "APR": 4362,
    "MAY": 4017,
    "JUN": 4121,
    "JUL": 4097,
    "AUG": 4863,
    "SEP": 5041,
    "OCT": 4886,
    "NOV": 4787,
    "DEC": 4375
  },
  {
    "ID": 56136,
    "LON": -63.1445,
    "LAT": -4.0945,
    "NAME": "Coari",
    "CLASS": "Sede Municipal",
    "STATE": "AMAZONAS",
    "ANNUAL": 4513,
    "JAN": 4308,
    "FEB": 4556,
    "MAR": 4500,
    "APR": 4115,
    "MAY": 3901,
    "JUN": 4308,
    "JUL": 4341,
    "AUG": 4976,
    "SEP": 5048,
    "OCT": 4954,
    "NOV": 4703,
    "DEC": 4441
  },
  {
    "ID": 56791,
    "LON": -61.3621,
    "LAT": -3.8991,
    "NAME": "Beruri",
    "CLASS": "Sede Municipal",
    "STATE": "AMAZONAS",
    "ANNUAL": 4362,
    "JAN": 4149,
    "FEB": 4179,
    "MAR": 4180,
    "APR": 3897,
    "MAY": 3817,
    "JUN": 4158,
    "JUL": 4308,
    "AUG": 4943,
    "SEP": 4957,
    "OCT": 4874,
    "NOV": 4612,
    "DEC": 4271
  },
  {
    "ID": 56814,
    "LON": -59.0945,
    "LAT": -3.9008,
    "NAME": "Nova Olinda do Norte",
    "CLASS": "Sede Municipal",
    "STATE": "AMAZONAS",
    "ANNUAL": 4385,
    "JAN": 3918,
    "FEB": 4115,
    "MAR": 4009,
    "APR": 3884,
    "MAY": 3941,
    "JUN": 4352,
    "JUL": 4469,
    "AUG": 5023,
    "SEP": 5078,
    "OCT": 4901,
    "NOV": 4718,
    "DEC": 4206
  },
  {
    "ID": 57101,
    "LON": -62.0592,
    "LAT": -3.837,
    "NAME": "Codajás",
    "CLASS": "Sede Municipal",
    "STATE": "AMAZONAS",
    "ANNUAL": 4364,
    "JAN": 4077,
    "FEB": 4242,
    "MAR": 4250,
    "APR": 3951,
    "MAY": 3829,
    "JUN": 4223,
    "JUL": 4389,
    "AUG": 4929,
    "SEP": 4875,
    "OCT": 4774,
    "NOV": 4583,
    "DEC": 4242
  },
  {
    "ID": 57118,
    "LON": -60.3695,
    "LAT": -3.7684,
    "NAME": "Careiro",
    "CLASS": "Sede Municipal",
    "STATE": "AMAZONAS",
    "ANNUAL": 4324,
    "JAN": 3973,
    "FEB": 4060,
    "MAR": 4048,
    "APR": 3826,
    "MAY": 3792,
    "JUN": 4243,
    "JUL": 4373,
    "AUG": 4926,
    "SEP": 4952,
    "OCT": 4811,
    "NOV": 4711,
    "DEC": 4169
  },
  {
    "ID": 57421,
    "LON": -61.6579,
    "LAT": -3.7464,
    "NAME": "Anori",
    "CLASS": "Sede Municipal",
    "STATE": "AMAZONAS",
    "ANNUAL": 4463,
    "JAN": 4134,
    "FEB": 4271,
    "MAR": 4316,
    "APR": 4031,
    "MAY": 3958,
    "JUN": 4364,
    "JUL": 4490,
    "AUG": 5084,
    "SEP": 4994,
    "OCT": 4926,
    "NOV": 4667,
    "DEC": 4318
  },
  {
    "ID": 57739,
    "LON": -61.3968,
    "LAT": -3.5674,
    "NAME": "Anamã",
    "CLASS": "Sede Municipal",
    "STATE": "AMAZONAS",
    "ANNUAL": 4528,
    "JAN": 4214,
    "FEB": 4287,
    "MAR": 4369,
    "APR": 4077,
    "MAY": 4022,
    "JUN": 4505,
    "JUL": 4533,
    "AUG": 5152,
    "SEP": 5080,
    "OCT": 5009,
    "NOV": 4752,
    "DEC": 4337
  },
  {
    "ID": 57761,
    "LON": -59.126,
    "LAT": -3.5861,
    "NAME": "Autazes",
    "CLASS": "Sede Municipal",
    "STATE": "AMAZONAS",
    "ANNUAL": 4433,
    "JAN": 4047,
    "FEB": 4211,
    "MAR": 4114,
    "APR": 3877,
    "MAY": 3969,
    "JUN": 4359,
    "JUL": 4392,
    "AUG": 5034,
    "SEP": 5137,
    "OCT": 4982,
    "NOV": 4783,
    "DEC": 4292
  },
  {
    "ID": 57976,
    "LON": -68.951,
    "LAT": -3.4619,
    "NAME": "São Paulo de Olivença",
    "CLASS": "Sede Municipal",
    "STATE": "AMAZONAS",
    "ANNUAL": 4519,
    "JAN": 4249,
    "FEB": 4659,
    "MAR": 4546,
    "APR": 4383,
    "MAY": 4035,
    "JUN": 4145,
    "JUL": 4061,
    "AUG": 4821,
    "SEP": 5049,
    "OCT": 4995,
    "NOV": 4826,
    "DEC": 4455
  },
  {
    "ID": 58005,
    "LON": -66.0723,
    "LAT": -3.4848,
    "NAME": "Juruá",
    "CLASS": "Sede Municipal",
    "STATE": "AMAZONAS",
    "ANNUAL": 4366,
    "JAN": 4147,
    "FEB": 4393,
    "MAR": 4378,
    "APR": 4149,
    "MAY": 3802,
    "JUN": 4026,
    "JUL": 4161,
    "AUG": 4756,
    "SEP": 4827,
    "OCT": 4794,
    "NOV": 4626,
    "DEC": 4334
  },
  {
    "ID": 58293,
    "LON": -68.1995,
    "LAT": -3.3632,
    "NAME": "Amaturá",
    "CLASS": "Sede Municipal",
    "STATE": "AMAZONAS",
    "ANNUAL": 4527,
    "JAN": 4346,
    "FEB": 4710,
    "MAR": 4511,
    "APR": 4362,
    "MAY": 3972,
    "JUN": 4163,
    "JUL": 4114,
    "AUG": 4852,
    "SEP": 5048,
    "OCT": 5016,
    "NOV": 4772,
    "DEC": 4457
  },
  {
    "ID": 58328,
    "LON": -64.7198,
    "LAT": -3.3686,
    "NAME": "Tefé",
    "CLASS": "Sede Municipal",
    "STATE": "AMAZONAS",
    "ANNUAL": 4539,
    "JAN": 4338,
    "FEB": 4550,
    "MAR": 4544,
    "APR": 4257,
    "MAY": 3937,
    "JUN": 4236,
    "JUL": 4319,
    "AUG": 4954,
    "SEP": 5037,
    "OCT": 5008,
    "NOV": 4749,
    "DEC": 4542
  },
  {
    "ID": 58371,
    "LON": -60.4617,
    "LAT": -3.4412,
    "NAME": "Manaquiri",
    "CLASS": "Sede Municipal",
    "STATE": "AMAZONAS",
    "ANNUAL": 4494,
    "JAN": 4152,
    "FEB": 4247,
    "MAR": 4213,
    "APR": 3977,
    "MAY": 3984,
    "JUN": 4440,
    "JUL": 4548,
    "AUG": 5088,
    "SEP": 5084,
    "OCT": 5038,
    "NOV": 4859,
    "DEC": 4291
  },
  {
    "ID": 58398,
    "LON": -57.7072,
    "LAT": -3.3933,
    "NAME": "Maués",
    "CLASS": "Sede Municipal",
    "STATE": "AMAZONAS",
    "ANNUAL": 4466,
    "JAN": 3950,
    "FEB": 4133,
    "MAR": 4048,
    "APR": 3842,
    "MAY": 3992,
    "JUN": 4508,
    "JUL": 4545,
    "AUG": 5158,
    "SEP": 5087,
    "OCT": 5113,
    "NOV": 4830,
    "DEC": 4391
  },
  {
    "ID": 58672,
    "LON": -61.221,
    "LAT": -3.3158,
    "NAME": "Caapiranga",
    "CLASS": "Sede Municipal",
    "STATE": "AMAZONAS",
    "ANNUAL": 4378,
    "JAN": 4071,
    "FEB": 4213,
    "MAR": 4186,
    "APR": 3986,
    "MAY": 3843,
    "JUN": 4357,
    "JUL": 4477,
    "AUG": 4958,
    "SEP": 4882,
    "OCT": 4844,
    "NOV": 4530,
    "DEC": 4188
  },
  {
    "ID": 58678,
    "LON": -60.622,
    "LAT": -3.291,
    "NAME": "Manacapuru",
    "CLASS": "Sede Municipal",
    "STATE": "AMAZONAS",
    "ANNUAL": 4464,
    "JAN": 4133,
    "FEB": 4208,
    "MAR": 4222,
    "APR": 4010,
    "MAY": 3949,
    "JUN": 4467,
    "JUL": 4542,
    "AUG": 5021,
    "SEP": 4971,
    "OCT": 4951,
    "NOV": 4790,
    "DEC": 4305
  },
  {
    "ID": 58683,
    "LON": -60.1904,
    "LAT": -3.2752,
    "NAME": "Iranduba",
    "CLASS": "Sede Municipal",
    "STATE": "AMAZONAS",
    "ANNUAL": 4517,
    "JAN": 4143,
    "FEB": 4156,
    "MAR": 4170,
    "APR": 4026,
    "MAY": 4060,
    "JUN": 4544,
    "JUL": 4634,
    "AUG": 5149,
    "SEP": 5138,
    "OCT": 5015,
    "NOV": 4901,
    "DEC": 4269
  },
  {
    "ID": 58943,
    "LON": -64.8011,
    "LAT": -3.2277,
    "NAME": "Alvarães",
    "CLASS": "Sede Municipal",
    "STATE": "AMAZONAS",
    "ANNUAL": 4553,
    "JAN": 4312,
    "FEB": 4573,
    "MAR": 4518,
    "APR": 4301,
    "MAY": 3999,
    "JUN": 4276,
    "JUL": 4364,
    "AUG": 4963,
    "SEP": 5035,
    "OCT": 5017,
    "NOV": 4775,
    "DEC": 4503
  },
  {
    "ID": 58993,
    "LON": -59.8269,
    "LAT": -3.1973,
    "NAME": "Careiro da Várzea",
    "CLASS": "Sede Municipal",
    "STATE": "AMAZONAS",
    "ANNUAL": 4528,
    "JAN": 4114,
    "FEB": 4194,
    "MAR": 4197,
    "APR": 4030,
    "MAY": 4034,
    "JUN": 4568,
    "JUL": 4607,
    "AUG": 5163,
    "SEP": 5216,
    "OCT": 5001,
    "NOV": 4878,
    "DEC": 4338
  },
  {
    "ID": 59218,
    "LON": -67.9461,
    "LAT": -3.1032,
    "NAME": "Santo Antônio do Içá",
    "CLASS": "Sede Municipal",
    "STATE": "AMAZONAS",
    "ANNUAL": 4524,
    "JAN": 4333,
    "FEB": 4702,
    "MAR": 4500,
    "APR": 4396,
    "MAY": 4010,
    "JUN": 4135,
    "JUL": 4161,
    "AUG": 4849,
    "SEP": 5029,
    "OCT": 4995,
    "NOV": 4763,
    "DEC": 4421
  },
  {
    "ID": 59297,
    "LON": -60.0221,
    "LAT": -3.1194,
    "NAME": "Manaus",
    "CLASS": "Capital Estadual",
    "STATE": "AMAZONAS",
    "ANNUAL": 4323,
    "JAN": 3947,
    "FEB": 4017,
    "MAR": 4040,
    "APR": 3831,
    "MAY": 3879,
    "JUN": 4385,
    "JUL": 4431,
    "AUG": 4934,
    "SEP": 4887,
    "OCT": 4778,
    "NOV": 4629,
    "DEC": 4118
  },
  {
    "ID": 59313,
    "LON": -58.4453,
    "LAT": -3.139,
    "NAME": "Itacoatiara",
    "CLASS": "Sede Municipal",
    "STATE": "AMAZONAS",
    "ANNUAL": 4538,
    "JAN": 4109,
    "FEB": 4182,
    "MAR": 4149,
    "APR": 3983,
    "MAY": 3982,
    "JUN": 4574,
    "JUL": 4585,
    "AUG": 5201,
    "SEP": 5259,
    "OCT": 5095,
    "NOV": 4895,
    "DEC": 4442
  },
  {
    "ID": 59316,
    "LON": -58.1501,
    "LAT": -3.1288,
    "NAME": "Urucurituba",
    "CLASS": "Sede Municipal",
    "STATE": "AMAZONAS",
    "ANNUAL": 4435,
    "JAN": 3970,
    "FEB": 4146,
    "MAR": 4051,
    "APR": 3839,
    "MAY": 3952,
    "JUN": 4500,
    "JUL": 4487,
    "AUG": 5094,
    "SEP": 5112,
    "OCT": 4980,
    "NOV": 4756,
    "DEC": 4329
  },
  {
    "ID": 59550,
    "LON": -65.1138,
    "LAT": -2.9965,
    "NAME": "Uarini",
    "CLASS": "Sede Municipal",
    "STATE": "AMAZONAS",
    "ANNUAL": 4572,
    "JAN": 4428,
    "FEB": 4700,
    "MAR": 4589,
    "APR": 4322,
    "MAY": 3958,
    "JUN": 4281,
    "JUL": 4316,
    "AUG": 4936,
    "SEP": 5000,
    "OCT": 5037,
    "NOV": 4733,
    "DEC": 4566
  },
  {
    "ID": 59626,
    "LON": -57.5878,
    "LAT": -2.9745,
    "NAME": "Boa Vista do Ramos",
    "CLASS": "Sede Municipal",
    "STATE": "AMAZONAS",
    "ANNUAL": 4375,
    "JAN": 3918,
    "FEB": 4054,
    "MAR": 3994,
    "APR": 3739,
    "MAY": 3817,
    "JUN": 4381,
    "JUL": 4379,
    "AUG": 5034,
    "SEP": 5058,
    "OCT": 4993,
    "NOV": 4808,
    "DEC": 4324
  },
  {
    "ID": 59826,
    "LON": -67.7924,
    "LAT": -2.8662,
    "NAME": "Tonantins",
    "CLASS": "Sede Municipal",
    "STATE": "AMAZONAS",
    "ANNUAL": 4533,
    "JAN": 4397,
    "FEB": 4750,
    "MAR": 4514,
    "APR": 4374,
    "MAY": 4004,
    "JUN": 4110,
    "JUL": 4125,
    "AUG": 4813,
    "SEP": 5062,
    "OCT": 4966,
    "NOV": 4786,
    "DEC": 4494
  },
  {
    "ID": 60221,
    "LON": -58.2146,
    "LAT": -2.8366,
    "NAME": "Silves",
    "CLASS": "Sede Municipal",
    "STATE": "AMAZONAS",
    "ANNUAL": 4452,
    "JAN": 3971,
    "FEB": 4092,
    "MAR": 4056,
    "APR": 3884,
    "MAY": 3974,
    "JUN": 4562,
    "JUL": 4507,
    "AUG": 5158,
    "SEP": 5172,
    "OCT": 4928,
    "NOV": 4755,
    "DEC": 4358
  },
  {
    "ID": 60233,
    "LON": -57.0683,
    "LAT": -2.7992,
    "NAME": "Barreirinha",
    "CLASS": "Sede Municipal",
    "STATE": "AMAZONAS",
    "ANNUAL": 4572,
    "JAN": 4120,
    "FEB": 4222,
    "MAR": 4159,
    "APR": 3962,
    "MAY": 4080,
    "JUN": 4645,
    "JUL": 4557,
    "AUG": 5221,
    "SEP": 5119,
    "OCT": 5216,
    "NOV": 5049,
    "DEC": 4515
  },
  {
    "ID": 60425,
    "LON": -66.7696,
    "LAT": -2.749,
    "NAME": "Jutaí",
    "CLASS": "Sede Municipal",
    "STATE": "AMAZONAS",
    "ANNUAL": 4495,
    "JAN": 4380,
    "FEB": 4703,
    "MAR": 4510,
    "APR": 4283,
    "MAY": 3903,
    "JUN": 4145,
    "JUL": 4117,
    "AUG": 4790,
    "SEP": 5001,
    "OCT": 4910,
    "NOV": 4727,
    "DEC": 4470
  },
  {
    "ID": 60496,
    "LON": -59.6862,
    "LAT": -2.7049,
    "NAME": "Rio Preto da Eva",
    "CLASS": "Sede Municipal",
    "STATE": "AMAZONAS",
    "ANNUAL": 4330,
    "JAN": 3998,
    "FEB": 4078,
    "MAR": 4019,
    "APR": 3785,
    "MAY": 3796,
    "JUN": 4281,
    "JUL": 4296,
    "AUG": 4945,
    "SEP": 5020,
    "OCT": 4859,
    "NOV": 4670,
    "DEC": 4212
  },
  {
    "ID": 60512,
    "LON": -58.0297,
    "LAT": -2.7412,
    "NAME": "Itapiranga",
    "CLASS": "Sede Municipal",
    "STATE": "AMAZONAS",
    "ANNUAL": 4536,
    "JAN": 3987,
    "FEB": 4133,
    "MAR": 4124,
    "APR": 3984,
    "MAY": 4079,
    "JUN": 4587,
    "JUL": 4540,
    "AUG": 5194,
    "SEP": 5292,
    "OCT": 5122,
    "NOV": 4941,
    "DEC": 4449
  },
  {
    "ID": 60762,
    "LON": -60.9438,
    "LAT": -2.6368,
    "NAME": "Novo Airão",
    "CLASS": "Sede Municipal",
    "STATE": "AMAZONAS",
    "ANNUAL": 4536,
    "JAN": 4179,
    "FEB": 4304,
    "MAR": 4249,
    "APR": 4041,
    "MAY": 4055,
    "JUN": 4508,
    "JUL": 4591,
    "AUG": 5117,
    "SEP": 5140,
    "OCT": 5047,
    "NOV": 4821,
    "DEC": 4386
  },
  {
    "ID": 60793,
    "LON": -57.8735,
    "LAT": -2.5595,
    "NAME": "São Sebastião do Uatumã",
    "CLASS": "Sede Municipal",
    "STATE": "AMAZONAS",
    "ANNUAL": 4566,
    "JAN": 4024,
    "FEB": 4122,
    "MAR": 4114,
    "APR": 3966,
    "MAY": 4073,
    "JUN": 4699,
    "JUL": 4639,
    "AUG": 5258,
    "SEP": 5251,
    "OCT": 5186,
    "NOV": 4979,
    "DEC": 4478
  },
  {
    "ID": 60804,
    "LON": -56.7295,
    "LAT": -2.6378,
    "NAME": "Parintins",
    "CLASS": "Sede Municipal",
    "STATE": "AMAZONAS",
    "ANNUAL": 4618,
    "JAN": 4244,
    "FEB": 4268,
    "MAR": 4163,
    "APR": 3916,
    "MAY": 4053,
    "JUN": 4597,
    "JUL": 4544,
    "AUG": 5267,
    "SEP": 5193,
    "OCT": 5367,
    "NOV": 5185,
    "DEC": 4620
  },
  {
    "ID": 60982,
    "LON": -66.0947,
    "LAT": -2.5238,
    "NAME": "Fonte Boa",
    "CLASS": "Sede Municipal",
    "STATE": "AMAZONAS",
    "ANNUAL": 4580,
    "JAN": 4469,
    "FEB": 4722,
    "MAR": 4591,
    "APR": 4338,
    "MAY": 4040,
    "JUN": 4219,
    "JUL": 4243,
    "AUG": 4886,
    "SEP": 5101,
    "OCT": 4971,
    "NOV": 4818,
    "DEC": 4566
  },
  {
    "ID": 61065,
    "LON": -57.7542,
    "LAT": -2.5297,
    "NAME": "Urucará",
    "CLASS": "Sede Municipal",
    "STATE": "AMAZONAS",
    "ANNUAL": 4517,
    "JAN": 3955,
    "FEB": 4059,
    "MAR": 4019,
    "APR": 3891,
    "MAY": 4005,
    "JUN": 4661,
    "JUL": 4644,
    "AUG": 5274,
    "SEP": 5247,
    "OCT": 5150,
    "NOV": 4878,
    "DEC": 4419
  },
  {
    "ID": 61870,
    "LON": -56.7116,
    "LAT": -2.2083,
    "NAME": "Nhamundá",
    "CLASS": "Sede Municipal",
    "STATE": "AMAZONAS",
    "ANNUAL": 4650,
    "JAN": 4158,
    "FEB": 4198,
    "MAR": 4214,
    "APR": 4090,
    "MAY": 4178,
    "JUN": 4740,
    "JUL": 4750,
    "AUG": 5326,
    "SEP": 5219,
    "OCT": 5304,
    "NOV": 5084,
    "DEC": 4537
  },
  {
    "ID": 62343,
    "LON": -60.0238,
    "LAT": -2.0302,
    "NAME": "Presidente Figueiredo",
    "CLASS": "Sede Municipal",
    "STATE": "AMAZONAS",
    "ANNUAL": 4372,
    "JAN": 4147,
    "FEB": 4159,
    "MAR": 4148,
    "APR": 3880,
    "MAY": 3845,
    "JUN": 4308,
    "JUL": 4283,
    "AUG": 4907,
    "SEP": 4961,
    "OCT": 4881,
    "NOV": 4614,
    "DEC": 4328
  },
  {
    "ID": 62526,
    "LON": -66.9957,
    "LAT": -1.8803,
    "NAME": "Japurá",
    "CLASS": "Sede Municipal",
    "STATE": "AMAZONAS",
    "ANNUAL": 4557,
    "JAN": 4508,
    "FEB": 4748,
    "MAR": 4561,
    "APR": 4319,
    "MAY": 3966,
    "JUN": 4146,
    "JUL": 4182,
    "AUG": 4856,
    "SEP": 5054,
    "OCT": 4970,
    "NOV": 4811,
    "DEC": 4569
  },
  {
    "ID": 62540,
    "LON": -65.5735,
    "LAT": -1.8535,
    "NAME": "Maraã",
    "CLASS": "Sede Municipal",
    "STATE": "AMAZONAS",
    "ANNUAL": 4590,
    "JAN": 4540,
    "FEB": 4681,
    "MAR": 4555,
    "APR": 4354,
    "MAY": 4017,
    "JUN": 4247,
    "JUL": 4327,
    "AUG": 4962,
    "SEP": 5114,
    "OCT": 4993,
    "NOV": 4754,
    "DEC": 4536
  },
  {
    "ID": 64786,
    "LON": -62.9315,
    "LAT": -0.9837,
    "NAME": "Barcelos",
    "CLASS": "Sede Municipal",
    "STATE": "AMAZONAS",
    "ANNUAL": 4613,
    "JAN": 4524,
    "FEB": 4669,
    "MAR": 4526,
    "APR": 4228,
    "MAY": 3933,
    "JUN": 4349,
    "JUL": 4401,
    "AUG": 4958,
    "SEP": 5169,
    "OCT": 5046,
    "NOV": 4835,
    "DEC": 4719
  },
  {
    "ID": 66141,
    "LON": -65.0097,
    "LAT": -0.4112,
    "NAME": "Santa Isabel do Rio Negro",
    "CLASS": "Sede Municipal",
    "STATE": "AMAZONAS",
    "ANNUAL": 4604,
    "JAN": 4576,
    "FEB": 4723,
    "MAR": 4571,
    "APR": 4387,
    "MAY": 3963,
    "JUN": 4297,
    "JUL": 4339,
    "AUG": 4884,
    "SEP": 5132,
    "OCT": 5015,
    "NOV": 4775,
    "DEC": 4582
  },
  {
    "ID": 66773,
    "LON": -67.0845,
    "LAT": -0.1195,
    "NAME": "São Gabriel da Cachoeira",
    "CLASS": "Sede Municipal",
    "STATE": "AMAZONAS",
    "ANNUAL": 4664,
    "JAN": 4677,
    "FEB": 4866,
    "MAR": 4923,
    "APR": 4545,
    "MAY": 4209,
    "JUN": 4318,
    "JUL": 4293,
    "AUG": 4738,
    "SEP": 5024,
    "OCT": 5015,
    "NOV": 4787,
    "DEC": 4581
  },
  {
    "ID": 14780,
    "LON": -39.5568,
    "LAT": -18.0759,
    "NAME": "Mucuri",
    "CLASS": "Sede Municipal",
    "STATE": "BAHIA",
    "ANNUAL": 5135,
    "JAN": 6378,
    "FEB": 6471,
    "MAR": 5600,
    "APR": 4743,
    "MAY": 4003,
    "JUN": 3717,
    "JUL": 3842,
    "AUG": 4634,
    "SEP": 5175,
    "OCT": 5423,
    "NOV": 5404,
    "DEC": 6222
  },
  {
    "ID": 15151,
    "LON": -39.3747,
    "LAT": -17.8931,
    "NAME": "Nova Viçosa",
    "CLASS": "Sede Municipal",
    "STATE": "BAHIA",
    "ANNUAL": 5066,
    "JAN": 6215,
    "FEB": 6298,
    "MAR": 5517,
    "APR": 4635,
    "MAY": 3964,
    "JUN": 3680,
    "JUL": 3815,
    "AUG": 4561,
    "SEP": 5075,
    "OCT": 5397,
    "NOV": 5404,
    "DEC": 6228
  },
  {
    "ID": 15522,
    "LON": -40.1132,
    "LAT": -17.6836,
    "NAME": "Ibirapuã",
    "CLASS": "Sede Municipal",
    "STATE": "BAHIA",
    "ANNUAL": 4922,
    "JAN": 6156,
    "FEB": 6169,
    "MAR": 5367,
    "APR": 4574,
    "MAY": 3873,
    "JUN": 3482,
    "JUL": 3654,
    "AUG": 4314,
    "SEP": 4890,
    "OCT": 5212,
    "NOV": 5201,
    "DEC": 6171
  },
  {
    "ID": 15531,
    "LON": -39.26,
    "LAT": -17.7273,
    "NAME": "Caravelas",
    "CLASS": "Sede Municipal",
    "STATE": "BAHIA",
    "ANNUAL": 5042,
    "JAN": 6289,
    "FEB": 6304,
    "MAR": 5496,
    "APR": 4515,
    "MAY": 3867,
    "JUN": 3596,
    "JUL": 3756,
    "AUG": 4493,
    "SEP": 4983,
    "OCT": 5398,
    "NOV": 5462,
    "DEC": 6343
  },
  {
    "ID": 15709,
    "LON": -40.3386,
    "LAT": -17.6061,
    "NAME": "Lajedão",
    "CLASS": "Sede Municipal",
    "STATE": "BAHIA",
    "ANNUAL": 4933,
    "JAN": 6131,
    "FEB": 6247,
    "MAR": 5406,
    "APR": 4622,
    "MAY": 3866,
    "JUN": 3504,
    "JUL": 3615,
    "AUG": 4280,
    "SEP": 4936,
    "OCT": 5250,
    "NOV": 5240,
    "DEC": 6094
  },
  {
    "ID": 15907,
    "LON": -39.7403,
    "LAT": -17.5404,
    "NAME": "Teixeira de Freitas",
    "CLASS": "Sede Municipal",
    "STATE": "BAHIA",
    "ANNUAL": 4892,
    "JAN": 6158,
    "FEB": 6069,
    "MAR": 5229,
    "APR": 4508,
    "MAY": 3839,
    "JUN": 3463,
    "JUL": 3655,
    "AUG": 4340,
    "SEP": 4883,
    "OCT": 5185,
    "NOV": 5243,
    "DEC": 6127
  },
  {
    "ID": 15912,
    "LON": -39.2039,
    "LAT": -17.5199,
    "NAME": "Alcobaça",
    "CLASS": "Sede Municipal",
    "STATE": "BAHIA",
    "ANNUAL": 5111,
    "JAN": 6436,
    "FEB": 6458,
    "MAR": 5532,
    "APR": 4550,
    "MAY": 3893,
    "JUN": 3622,
    "JUL": 3820,
    "AUG": 4517,
    "SEP": 5080,
    "OCT": 5445,
    "NOV": 5561,
    "DEC": 6420
  },
  {
    "ID": 16096,
    "LON": -40.2241,
    "LAT": -17.3711,
    "NAME": "Medeiros Neto",
    "CLASS": "Sede Municipal",
    "STATE": "BAHIA",
    "ANNUAL": 4959,
    "JAN": 6156,
    "FEB": 6204,
    "MAR": 5451,
    "APR": 4625,
    "MAY": 3855,
    "JUN": 3474,
    "JUL": 3642,
    "AUG": 4329,
    "SEP": 4989,
    "OCT": 5285,
    "NOV": 5320,
    "DEC": 6184
  },
  {
    "ID": 16300,
    "LON": -39.2231,
    "LAT": -17.3368,
    "NAME": "Prado",
    "CLASS": "Sede Municipal",
    "STATE": "BAHIA",
    "ANNUAL": 5127,
    "JAN": 6352,
    "FEB": 6444,
    "MAR": 5580,
    "APR": 4576,
    "MAY": 3953,
    "JUN": 3684,
    "JUL": 3841,
    "AUG": 4568,
    "SEP": 5137,
    "OCT": 5473,
    "NOV": 5537,
    "DEC": 6378
  },
  {
    "ID": 16483,
    "LON": -40.3325,
    "LAT": -17.1647,
    "NAME": "Itanhém",
    "CLASS": "Sede Municipal",
    "STATE": "BAHIA",
    "ANNUAL": 4982,
    "JAN": 6084,
    "FEB": 6223,
    "MAR": 5470,
    "APR": 4660,
    "MAY": 3866,
    "JUN": 3512,
    "JUL": 3680,
    "AUG": 4398,
    "SEP": 5074,
    "OCT": 5295,
    "NOV": 5298,
    "DEC": 6229
  },
  {
    "ID": 16486,
    "LON": -40.0977,
    "LAT": -17.2187,
    "NAME": "Vereda",
    "CLASS": "Sede Municipal",
    "STATE": "BAHIA",
    "ANNUAL": 4981,
    "JAN": 6139,
    "FEB": 6270,
    "MAR": 5502,
    "APR": 4630,
    "MAY": 3871,
    "JUN": 3500,
    "JUL": 3674,
    "AUG": 4344,
    "SEP": 5018,
    "OCT": 5296,
    "NOV": 5316,
    "DEC": 6209
  },
  {
    "ID": 16879,
    "LON": -39.5389,
    "LAT": -17.0383,
    "NAME": "Itamaraju",
    "CLASS": "Sede Municipal",
    "STATE": "BAHIA",
    "ANNUAL": 4863,
    "JAN": 5981,
    "FEB": 6075,
    "MAR": 5374,
    "APR": 4466,
    "MAY": 3832,
    "JUN": 3467,
    "JUL": 3651,
    "AUG": 4293,
    "SEP": 4849,
    "OCT": 5114,
    "NOV": 5211,
    "DEC": 6041
  },
  {
    "ID": 17262,
    "LON": -40.1593,
    "LAT": -16.8433,
    "NAME": "Jucuruçu",
    "CLASS": "Sede Municipal",
    "STATE": "BAHIA",
    "ANNUAL": 4899,
    "JAN": 5960,
    "FEB": 6102,
    "MAR": 5428,
    "APR": 4625,
    "MAY": 3865,
    "JUN": 3516,
    "JUL": 3661,
    "AUG": 4290,
    "SEP": 5009,
    "OCT": 5138,
    "NOV": 5138,
    "DEC": 6050
  },
  {
    "ID": 17656,
    "LON": -39.785,
    "LAT": -16.5837,
    "NAME": "Guaratinga",
    "CLASS": "Sede Municipal",
    "STATE": "BAHIA",
    "ANNUAL": 4862,
    "JAN": 5886,
    "FEB": 5993,
    "MAR": 5403,
    "APR": 4618,
    "MAY": 3929,
    "JUN": 3524,
    "JUL": 3738,
    "AUG": 4242,
    "SEP": 4865,
    "OCT": 5059,
    "NOV": 5116,
    "DEC": 5967
  },
  {
    "ID": 17658,
    "LON": -39.5597,
    "LAT": -16.5737,
    "NAME": "Itabela",
    "CLASS": "Sede Municipal",
    "STATE": "BAHIA",
    "ANNUAL": 4850,
    "JAN": 5882,
    "FEB": 6043,
    "MAR": 5361,
    "APR": 4537,
    "MAY": 3867,
    "JUN": 3480,
    "JUL": 3700,
    "AUG": 4243,
    "SEP": 4866,
    "OCT": 5100,
    "NOV": 5140,
    "DEC": 5990
  },
  {
    "ID": 18046,
    "LON": -39.5825,
    "LAT": -16.372,
    "NAME": "Eunápolis",
    "CLASS": "Sede Municipal",
    "STATE": "BAHIA",
    "ANNUAL": 4846,
    "JAN": 5889,
    "FEB": 5951,
    "MAR": 5333,
    "APR": 4587,
    "MAY": 3869,
    "JUN": 3504,
    "JUL": 3710,
    "AUG": 4241,
    "SEP": 4865,
    "OCT": 5097,
    "NOV": 5128,
    "DEC": 5973
  },
  {
    "ID": 18051,
    "LON": -39.0646,
    "LAT": -16.4439,
    "NAME": "Porto Seguro",
    "CLASS": "Sede Municipal",
    "STATE": "BAHIA",
    "ANNUAL": 5127,
    "JAN": 6231,
    "FEB": 6351,
    "MAR": 5688,
    "APR": 4700,
    "MAY": 4021,
    "JUN": 3686,
    "JUL": 3903,
    "AUG": 4577,
    "SEP": 5129,
    "OCT": 5458,
    "NOV": 5491,
    "DEC": 6295
  },
  {
    "ID": 18264,
    "LON": -39.0228,
    "LAT": -16.2821,
    "NAME": "Santa Cruz Cabrália",
    "CLASS": "Sede Municipal",
    "STATE": "BAHIA",
    "ANNUAL": 5078,
    "JAN": 6190,
    "FEB": 6280,
    "MAR": 5613,
    "APR": 4687,
    "MAY": 3971,
    "JUN": 3682,
    "JUL": 3866,
    "AUG": 4565,
    "SEP": 5064,
    "OCT": 5396,
    "NOV": 5402,
    "DEC": 6224
  },
  {
    "ID": 18684,
    "LON": -39.6136,
    "LAT": -16.0824,
    "NAME": "Itagimirim",
    "CLASS": "Sede Municipal",
    "STATE": "BAHIA",
    "ANNUAL": 4878,
    "JAN": 5923,
    "FEB": 6013,
    "MAR": 5363,
    "APR": 4622,
    "MAY": 3843,
    "JUN": 3509,
    "JUL": 3677,
    "AUG": 4263,
    "SEP": 4917,
    "OCT": 5135,
    "NOV": 5249,
    "DEC": 6022
  },
  {
    "ID": 18898,
    "LON": -39.5319,
    "LAT": -15.9706,
    "NAME": "Itapebi",
    "CLASS": "Sede Municipal",
    "STATE": "BAHIA",
    "ANNUAL": 4863,
    "JAN": 5928,
    "FEB": 5991,
    "MAR": 5379,
    "APR": 4613,
    "MAY": 3826,
    "JUN": 3517,
    "JUL": 3694,
    "AUG": 4308,
    "SEP": 4853,
    "OCT": 5081,
    "NOV": 5177,
    "DEC": 5984
  },
  {
    "ID": 19119,
    "LON": -38.8761,
    "LAT": -15.8613,
    "NAME": "Belmonte",
    "CLASS": "Sede Municipal",
    "STATE": "BAHIA",
    "ANNUAL": 5276,
    "JAN": 6320,
    "FEB": 6469,
    "MAR": 5776,
    "APR": 4834,
    "MAY": 4145,
    "JUN": 3766,
    "JUL": 4005,
    "AUG": 4785,
    "SEP": 5304,
    "OCT": 5694,
    "NOV": 5781,
    "DEC": 6435
  },
  {
    "ID": 19537,
    "LON": -40.0653,
    "LAT": -15.6533,
    "NAME": "Itarantim",
    "CLASS": "Sede Municipal",
    "STATE": "BAHIA",
    "ANNUAL": 4934,
    "JAN": 6006,
    "FEB": 6065,
    "MAR": 5505,
    "APR": 4677,
    "MAY": 3903,
    "JUN": 3494,
    "JUL": 3672,
    "AUG": 4270,
    "SEP": 5020,
    "OCT": 5203,
    "NOV": 5249,
    "DEC": 6139
  },
  {
    "ID": 19548,
    "LON": -38.954,
    "LAT": -15.6727,
    "NAME": "Canavieiras",
    "CLASS": "Sede Municipal",
    "STATE": "BAHIA",
    "ANNUAL": 5199,
    "JAN": 6271,
    "FEB": 6402,
    "MAR": 5750,
    "APR": 4747,
    "MAY": 4022,
    "JUN": 3684,
    "JUL": 3942,
    "AUG": 4637,
    "SEP": 5222,
    "OCT": 5584,
    "NOV": 5681,
    "DEC": 6455
  },
  {
    "ID": 19747,
    "LON": -40.4212,
    "LAT": -15.565,
    "NAME": "Macarani",
    "CLASS": "Sede Municipal",
    "STATE": "BAHIA",
    "ANNUAL": 4897,
    "JAN": 5991,
    "FEB": 6134,
    "MAR": 5453,
    "APR": 4684,
    "MAY": 3905,
    "JUN": 3457,
    "JUL": 3646,
    "AUG": 4171,
    "SEP": 4951,
    "OCT": 5094,
    "NOV": 5174,
    "DEC": 6098
  },
  {
    "ID": 19749,
    "LON": -40.2591,
    "LAT": -15.6244,
    "NAME": "Maiquinique",
    "CLASS": "Sede Municipal",
    "STATE": "BAHIA",
    "ANNUAL": 4851,
    "JAN": 5878,
    "FEB": 6024,
    "MAR": 5355,
    "APR": 4670,
    "MAY": 3909,
    "JUN": 3483,
    "JUL": 3649,
    "AUG": 4146,
    "SEP": 4918,
    "OCT": 5068,
    "NOV": 5128,
    "DEC": 5990
  },
  {
    "ID": 19753,
    "LON": -39.8743,
    "LAT": -15.5932,
    "NAME": "Potiraguá",
    "CLASS": "Sede Municipal",
    "STATE": "BAHIA",
    "ANNUAL": 4859,
    "JAN": 5907,
    "FEB": 5999,
    "MAR": 5385,
    "APR": 4592,
    "MAY": 3852,
    "JUN": 3477,
    "JUL": 3668,
    "AUG": 4262,
    "SEP": 4893,
    "OCT": 5088,
    "NOV": 5165,
    "DEC": 6021
  },
  {
    "ID": 19758,
    "LON": -39.3021,
    "LAT": -15.5648,
    "NAME": "Mascote",
    "CLASS": "Sede Municipal",
    "STATE": "BAHIA",
    "ANNUAL": 4854,
    "JAN": 5883,
    "FEB": 5934,
    "MAR": 5443,
    "APR": 4542,
    "MAY": 3841,
    "JUN": 3466,
    "JUL": 3720,
    "AUG": 4308,
    "SEP": 4884,
    "OCT": 5069,
    "NOV": 5182,
    "DEC": 5980
  },
  {
    "ID": 19953,
    "LON": -41.2381,
    "LAT": -15.5064,
    "NAME": "Cândido Sales",
    "CLASS": "Sede Municipal",
    "STATE": "BAHIA",
    "ANNUAL": 5055,
    "JAN": 5999,
    "FEB": 6118,
    "MAR": 5356,
    "APR": 4714,
    "MAY": 4008,
    "JUN": 3643,
    "JUL": 3884,
    "AUG": 4495,
    "SEP": 5461,
    "OCT": 5562,
    "NOV": 5362,
    "DEC": 6061
  },
  {
    "ID": 19956,
    "LON": -40.9076,
    "LAT": -15.5325,
    "NAME": "Encruzilhada",
    "CLASS": "Sede Municipal",
    "STATE": "BAHIA",
    "ANNUAL": 4986,
    "JAN": 6057,
    "FEB": 5996,
    "MAR": 5313,
    "APR": 4636,
    "MAY": 3936,
    "JUN": 3586,
    "JUL": 3815,
    "AUG": 4387,
    "SEP": 5295,
    "OCT": 5400,
    "NOV": 5312,
    "DEC": 6095
  },
  {
    "ID": 19958,
    "LON": -40.7445,
    "LAT": -15.4512,
    "NAME": "Ribeirão do Largo",
    "CLASS": "Sede Municipal",
    "STATE": "BAHIA",
    "ANNUAL": 4929,
    "JAN": 5999,
    "FEB": 6013,
    "MAR": 5363,
    "APR": 4623,
    "MAY": 3913,
    "JUN": 3529,
    "JUL": 3742,
    "AUG": 4282,
    "SEP": 5130,
    "OCT": 5317,
    "NOV": 5217,
    "DEC": 6015
  },
  {
    "ID": 19969,
    "LON": -39.6434,
    "LAT": -15.4599,
    "NAME": "Pau Brasil",
    "CLASS": "Sede Municipal",
    "STATE": "BAHIA",
    "ANNUAL": 4880,
    "JAN": 5848,
    "FEB": 5959,
    "MAR": 5337,
    "APR": 4569,
    "MAY": 3836,
    "JUN": 3490,
    "JUL": 3712,
    "AUG": 4353,
    "SEP": 5062,
    "OCT": 5224,
    "NOV": 5211,
    "DEC": 5958
  },
  {
    "ID": 20186,
    "LON": -39.4923,
    "LAT": -15.4146,
    "NAME": "Camacan",
    "CLASS": "Sede Municipal",
    "STATE": "BAHIA",
    "ANNUAL": 4787,
    "JAN": 5789,
    "FEB": 5802,
    "MAR": 5371,
    "APR": 4481,
    "MAY": 3859,
    "JUN": 3407,
    "JUL": 3600,
    "AUG": 4213,
    "SEP": 4821,
    "OCT": 4981,
    "NOV": 5122,
    "DEC": 5990
  },
  {
    "ID": 20187,
    "LON": -39.329,
    "LAT": -15.4346,
    "NAME": "Santa Luzia",
    "CLASS": "Sede Municipal",
    "STATE": "BAHIA",
    "ANNUAL": 4762,
    "JAN": 5794,
    "FEB": 5827,
    "MAR": 5310,
    "APR": 4428,
    "MAY": 3778,
    "JUN": 3408,
    "JUL": 3602,
    "AUG": 4231,
    "SEP": 4786,
    "OCT": 4936,
    "NOV": 5091,
    "DEC": 5948
  },
  {
    "ID": 20402,
    "LON": -39.4193,
    "LAT": -15.2656,
    "NAME": "Arataca",
    "CLASS": "Sede Municipal",
    "STATE": "BAHIA",
    "ANNUAL": 4694,
    "JAN": 5596,
    "FEB": 5748,
    "MAR": 5305,
    "APR": 4447,
    "MAY": 3793,
    "JUN": 3383,
    "JUL": 3597,
    "AUG": 4110,
    "SEP": 4690,
    "OCT": 4871,
    "NOV": 4971,
    "DEC": 5817
  },
  {
    "ID": 20406,
    "LON": -39.075,
    "LAT": -15.2937,
    "NAME": "Una",
    "CLASS": "Sede Municipal",
    "STATE": "BAHIA",
    "ANNUAL": 5044,
    "JAN": 6118,
    "FEB": 6208,
    "MAR": 5580,
    "APR": 4638,
    "MAY": 3915,
    "JUN": 3624,
    "JUL": 3849,
    "AUG": 4484,
    "SEP": 5045,
    "OCT": 5315,
    "NOV": 5475,
    "DEC": 6276
  },
  {
    "ID": 20607,
    "LON": -40.6328,
    "LAT": -15.2449,
    "NAME": "Itambé",
    "CLASS": "Sede Municipal",
    "STATE": "BAHIA",
    "ANNUAL": 4946,
    "JAN": 6053,
    "FEB": 6056,
    "MAR": 5502,
    "APR": 4680,
    "MAY": 3920,
    "JUN": 3461,
    "JUL": 3689,
    "AUG": 4179,
    "SEP": 5079,
    "OCT": 5273,
    "NOV": 5334,
    "DEC": 6124
  },
  {
    "ID": 20611,
    "LON": -40.2486,
    "LAT": -15.248,
    "NAME": "Itapetinga",
    "CLASS": "Sede Municipal",
    "STATE": "BAHIA",
    "ANNUAL": 4899,
    "JAN": 5875,
    "FEB": 6038,
    "MAR": 5416,
    "APR": 4570,
    "MAY": 3875,
    "JUN": 3459,
    "JUL": 3676,
    "AUG": 4252,
    "SEP": 5013,
    "OCT": 5195,
    "NOV": 5298,
    "DEC": 6119
  },
  {
    "ID": 20619,
    "LON": -39.4941,
    "LAT": -15.188,
    "NAME": "Jussari",
    "CLASS": "Sede Municipal",
    "STATE": "BAHIA",
    "ANNUAL": 4723,
    "JAN": 5603,
    "FEB": 5693,
    "MAR": 5282,
    "APR": 4492,
    "MAY": 3833,
    "JUN": 3483,
    "JUL": 3700,
    "AUG": 4204,
    "SEP": 4727,
    "OCT": 4903,
    "NOV": 4972,
    "DEC": 5785
  },
  {
    "ID": 20830,
    "LON": -40.0679,
    "LAT": -15.1146,
    "NAME": "Itororó",
    "CLASS": "Sede Municipal",
    "STATE": "BAHIA",
    "ANNUAL": 4863,
    "JAN": 5866,
    "FEB": 5959,
    "MAR": 5381,
    "APR": 4601,
    "MAY": 3908,
    "JUN": 3469,
    "JUL": 3687,
    "AUG": 4213,
    "SEP": 4905,
    "OCT": 5135,
    "NOV": 5247,
    "DEC": 5994
  },
  {
    "ID": 20833,
    "LON": -39.7238,
    "LAT": -15.1381,
    "NAME": "Itaju do Colônia",
    "CLASS": "Sede Municipal",
    "STATE": "BAHIA",
    "ANNUAL": 4865,
    "JAN": 5935,
    "FEB": 5812,
    "MAR": 5421,
    "APR": 4555,
    "MAY": 3875,
    "JUN": 3502,
    "JUL": 3755,
    "AUG": 4254,
    "SEP": 4895,
    "OCT": 5148,
    "NOV": 5252,
    "DEC": 5983
  },
  {
    "ID": 20837,
    "LON": -39.3411,
    "LAT": -15.0784,
    "NAME": "São José da Vitória",
    "CLASS": "Sede Municipal",
    "STATE": "BAHIA",
    "ANNUAL": 4712,
    "JAN": 5706,
    "FEB": 5756,
    "MAR": 5211,
    "APR": 4397,
    "MAY": 3751,
    "JUN": 3405,
    "JUL": 3648,
    "AUG": 4170,
    "SEP": 4770,
    "OCT": 4909,
    "NOV": 4979,
    "DEC": 5844
  },
  {
    "ID": 21021,
    "LON": -42.3697,
    "LAT": -15.0226,
    "NAME": "Mortugaba",
    "CLASS": "Sede Municipal",
    "STATE": "BAHIA",
    "ANNUAL": 5336,
    "JAN": 6134,
    "FEB": 6341,
    "MAR": 5595,
    "APR": 4895,
    "MAY": 4365,
    "JUN": 4023,
    "JUL": 4353,
    "AUG": 5082,
    "SEP": 5743,
    "OCT": 5905,
    "NOV": 5445,
    "DEC": 6145
  },
  {
    "ID": 21025,
    "LON": -41.9318,
    "LAT": -15.0392,
    "NAME": "Cordeiros",
    "CLASS": "Sede Municipal",
    "STATE": "BAHIA",
    "ANNUAL": 5317,
    "JAN": 6200,
    "FEB": 6339,
    "MAR": 5569,
    "APR": 4898,
    "MAY": 4336,
    "JUN": 3909,
    "JUL": 4225,
    "AUG": 4941,
    "SEP": 5722,
    "OCT": 5879,
    "NOV": 5533,
    "DEC": 6255
  },
  {
    "ID": 21030,
    "LON": -41.409,
    "LAT": -14.9769,
    "NAME": "Tremedal",
    "CLASS": "Sede Municipal",
    "STATE": "BAHIA",
    "ANNUAL": 5250,
    "JAN": 6161,
    "FEB": 6293,
    "MAR": 5614,
    "APR": 4875,
    "MAY": 4263,
    "JUN": 3864,
    "JUL": 4125,
    "AUG": 4709,
    "SEP": 5616,
    "OCT": 5756,
    "NOV": 5572,
    "DEC": 6149
  },
  {
    "ID": 21032,
    "LON": -41.2655,
    "LAT": -15.0338,
    "NAME": "Belo Campo",
    "CLASS": "Sede Municipal",
    "STATE": "BAHIA",
    "ANNUAL": 5230,
    "JAN": 6147,
    "FEB": 6146,
    "MAR": 5536,
    "APR": 4821,
    "MAY": 4268,
    "JUN": 3812,
    "JUL": 4102,
    "AUG": 4765,
    "SEP": 5668,
    "OCT": 5737,
    "NOV": 5588,
    "DEC": 6169
  },
  {
    "ID": 21040,
    "LON": -40.4092,
    "LAT": -14.9782,
    "NAME": "Caatiba",
    "CLASS": "Sede Municipal",
    "STATE": "BAHIA",
    "ANNUAL": 4902,
    "JAN": 5947,
    "FEB": 5998,
    "MAR": 5433,
    "APR": 4547,
    "MAY": 3879,
    "JUN": 3439,
    "JUL": 3644,
    "AUG": 4188,
    "SEP": 5088,
    "OCT": 5277,
    "NOV": 5305,
    "DEC": 6074
  },
  {
    "ID": 21045,
    "LON": -39.9238,
    "LAT": -14.9875,
    "NAME": "Firmino Alves",
    "CLASS": "Sede Municipal",
    "STATE": "BAHIA",
    "ANNUAL": 4818,
    "JAN": 5800,
    "FEB": 5842,
    "MAR": 5344,
    "APR": 4556,
    "MAY": 3853,
    "JUN": 3499,
    "JUL": 3696,
    "AUG": 4203,
    "SEP": 4878,
    "OCT": 5032,
    "NOV": 5154,
    "DEC": 5953
  },
  {
    "ID": 21046,
    "LON": -39.8118,
    "LAT": -14.9644,
    "NAME": "Santa Cruz da Vitória",
    "CLASS": "Sede Municipal",
    "STATE": "BAHIA",
    "ANNUAL": 4834,
    "JAN": 5848,
    "FEB": 5823,
    "MAR": 5365,
    "APR": 4570,
    "MAY": 3860,
    "JUN": 3502,
    "JUL": 3714,
    "AUG": 4223,
    "SEP": 4879,
    "OCT": 5042,
    "NOV": 5206,
    "DEC": 5977
  },
  {
    "ID": 21051,
    "LON": -39.3027,
    "LAT": -14.9561,
    "NAME": "Buerarema",
    "CLASS": "Sede Municipal",
    "STATE": "BAHIA",
    "ANNUAL": 4822,
    "JAN": 5845,
    "FEB": 5872,
    "MAR": 5339,
    "APR": 4511,
    "MAY": 3802,
    "JUN": 3465,
    "JUL": 3722,
    "AUG": 4269,
    "SEP": 4874,
    "OCT": 5065,
    "NOV": 5122,
    "DEC": 5983
  },
  {
    "ID": 21239,
    "LON": -41.9722,
    "LAT": -14.9027,
    "NAME": "Condeúba",
    "CLASS": "Sede Municipal",
    "STATE": "BAHIA",
    "ANNUAL": 5349,
    "JAN": 6207,
    "FEB": 6338,
    "MAR": 5661,
    "APR": 4976,
    "MAY": 4364,
    "JUN": 3962,
    "JUL": 4259,
    "AUG": 4975,
    "SEP": 5748,
    "OCT": 5922,
    "NOV": 5539,
    "DEC": 6235
  },
  {
    "ID": 21241,
    "LON": -41.7172,
    "LAT": -14.9448,
    "NAME": "Piripá",
    "CLASS": "Sede Municipal",
    "STATE": "BAHIA",
    "ANNUAL": 5324,
    "JAN": 6212,
    "FEB": 6369,
    "MAR": 5645,
    "APR": 5011,
    "MAY": 4307,
    "JUN": 3879,
    "JUL": 4233,
    "AUG": 4920,
    "SEP": 5686,
    "OCT": 5878,
    "NOV": 5564,
    "DEC": 6184
  },
  {
    "ID": 21250,
    "LON": -40.8445,
    "LAT": -14.8619,
    "NAME": "Vitória da Conquista",
    "CLASS": "Sede Municipal",
    "STATE": "BAHIA",
    "ANNUAL": 5081,
    "JAN": 6067,
    "FEB": 6000,
    "MAR": 5417,
    "APR": 4750,
    "MAY": 4097,
    "JUN": 3708,
    "JUL": 3914,
    "AUG": 4504,
    "SEP": 5451,
    "OCT": 5607,
    "NOV": 5387,
    "DEC": 6071
  },
  {
    "ID": 21253,
    "LON": -40.5794,
    "LAT": -14.8659,
    "NAME": "Barra do Choça",
    "CLASS": "Sede Municipal",
    "STATE": "BAHIA",
    "ANNUAL": 4954,
    "JAN": 5911,
    "FEB": 5975,
    "MAR": 5429,
    "APR": 4606,
    "MAY": 3996,
    "JUN": 3550,
    "JUL": 3787,
    "AUG": 4286,
    "SEP": 5219,
    "OCT": 5421,
    "NOV": 5285,
    "DEC": 5988
  },
  {
    "ID": 21262,
    "LON": -39.6564,
    "LAT": -14.8586,
    "NAME": "Floresta Azul",
    "CLASS": "Sede Municipal",
    "STATE": "BAHIA",
    "ANNUAL": 4870,
    "JAN": 5943,
    "FEB": 5857,
    "MAR": 5422,
    "APR": 4559,
    "MAY": 3868,
    "JUN": 3531,
    "JUL": 3762,
    "AUG": 4280,
    "SEP": 4939,
    "OCT": 5132,
    "NOV": 5198,
    "DEC": 5952
  },
  {
    "ID": 21263,
    "LON": -39.5918,
    "LAT": -14.8583,
    "NAME": "Ibicaraí",
    "CLASS": "Sede Municipal",
    "STATE": "BAHIA",
    "ANNUAL": 4857,
    "JAN": 5892,
    "FEB": 5841,
    "MAR": 5414,
    "APR": 4565,
    "MAY": 3886,
    "JUN": 3507,
    "JUL": 3730,
    "AUG": 4268,
    "SEP": 4914,
    "OCT": 5094,
    "NOV": 5200,
    "DEC": 5973
  },
  {
    "ID": 21264,
    "LON": -39.4244,
    "LAT": -14.8919,
    "NAME": "Itapé",
    "CLASS": "Sede Municipal",
    "STATE": "BAHIA",
    "ANNUAL": 4864,
    "JAN": 5863,
    "FEB": 5888,
    "MAR": 5436,
    "APR": 4562,
    "MAY": 3880,
    "JUN": 3511,
    "JUL": 3724,
    "AUG": 4283,
    "SEP": 4905,
    "OCT": 5073,
    "NOV": 5238,
    "DEC": 6010
  },
  {
    "ID": 21445,
    "LON": -42.6576,
    "LAT": -14.7691,
    "NAME": "Urandi",
    "CLASS": "Sede Municipal",
    "STATE": "BAHIA",
    "ANNUAL": 5793,
    "JAN": 6637,
    "FEB": 6680,
    "MAR": 5978,
    "APR": 5448,
    "MAY": 4842,
    "JUN": 4647,
    "JUL": 4822,
    "AUG": 5508,
    "SEP": 6089,
    "OCT": 6320,
    "NOV": 5948,
    "DEC": 6603
  },
  {
    "ID": 21447,
    "LON": -42.432,
    "LAT": -14.8431,
    "NAME": "Jacaraci",
    "CLASS": "Sede Municipal",
    "STATE": "BAHIA",
    "ANNUAL": 5365,
    "JAN": 6097,
    "FEB": 6288,
    "MAR": 5557,
    "APR": 4976,
    "MAY": 4399,
    "JUN": 4084,
    "JUL": 4451,
    "AUG": 5186,
    "SEP": 5765,
    "OCT": 5964,
    "NOV": 5486,
    "DEC": 6127
  },
  {
    "ID": 21470,
    "LON": -40.1443,
    "LAT": -14.795,
    "NAME": "Nova Canaã",
    "CLASS": "Sede Municipal",
    "STATE": "BAHIA",
    "ANNUAL": 4888,
    "JAN": 5880,
    "FEB": 5998,
    "MAR": 5460,
    "APR": 4560,
    "MAY": 3895,
    "JUN": 3498,
    "JUL": 3649,
    "AUG": 4147,
    "SEP": 4956,
    "OCT": 5174,
    "NOV": 5342,
    "DEC": 6100
  },
  {
    "ID": 21471,
    "LON": -40.0898,
    "LAT": -14.7532,
    "NAME": "Iguaí",
    "CLASS": "Sede Municipal",
    "STATE": "BAHIA",
    "ANNUAL": 4855,
    "JAN": 5799,
    "FEB": 5927,
    "MAR": 5444,
    "APR": 4594,
    "MAY": 3889,
    "JUN": 3502,
    "JUL": 3691,
    "AUG": 4172,
    "SEP": 4903,
    "OCT": 5075,
    "NOV": 5237,
    "DEC": 6028
  },
  {
    "ID": 21472,
    "LON": -39.9882,
    "LAT": -14.8454,
    "NAME": "Ibicuí",
    "CLASS": "Sede Municipal",
    "STATE": "BAHIA",
    "ANNUAL": 4834,
    "JAN": 5869,
    "FEB": 5854,
    "MAR": 5445,
    "APR": 4566,
    "MAY": 3887,
    "JUN": 3557,
    "JUL": 3683,
    "AUG": 4212,
    "SEP": 4815,
    "OCT": 4973,
    "NOV": 5136,
    "DEC": 6008
  },
  {
    "ID": 21477,
    "LON": -39.4764,
    "LAT": -14.7952,
    "NAME": "Barro Preto",
    "CLASS": "Sede Municipal",
    "STATE": "BAHIA",
    "ANNUAL": 4756,
    "JAN": 5669,
    "FEB": 5718,
    "MAR": 5353,
    "APR": 4513,
    "MAY": 3860,
    "JUN": 3492,
    "JUL": 3693,
    "AUG": 4144,
    "SEP": 4734,
    "OCT": 4910,
    "NOV": 5103,
    "DEC": 5878
  },
  {
    "ID": 21479,
    "LON": -39.2784,
    "LAT": -14.788,
    "NAME": "Itabuna",
    "CLASS": "Sede Municipal",
    "STATE": "BAHIA",
    "ANNUAL": 4900,
    "JAN": 5884,
    "FEB": 5958,
    "MAR": 5475,
    "APR": 4557,
    "MAY": 3893,
    "JUN": 3537,
    "JUL": 3779,
    "AUG": 4320,
    "SEP": 4922,
    "OCT": 5126,
    "NOV": 5297,
    "DEC": 6055
  },
  {
    "ID": 21481,
    "LON": -39.0463,
    "LAT": -14.7935,
    "NAME": "Ilhéus",
    "CLASS": "Sede Municipal",
    "STATE": "BAHIA",
    "ANNUAL": 5181,
    "JAN": 6203,
    "FEB": 6202,
    "MAR": 5758,
    "APR": 4745,
    "MAY": 4058,
    "JUN": 3722,
    "JUL": 3969,
    "AUG": 4557,
    "SEP": 5254,
    "OCT": 5548,
    "NOV": 5730,
    "DEC": 6423
  },
  {
    "ID": 21659,
    "LON": -42.5053,
    "LAT": -14.682,
    "NAME": "Licínio de Almeida",
    "CLASS": "Sede Municipal",
    "STATE": "BAHIA",
    "ANNUAL": 5589,
    "JAN": 6324,
    "FEB": 6447,
    "MAR": 5777,
    "APR": 5232,
    "MAY": 4631,
    "JUN": 4394,
    "JUL": 4646,
    "AUG": 5362,
    "SEP": 5936,
    "OCT": 6219,
    "NOV": 5745,
    "DEC": 6357
  },
  {
    "ID": 21668,
    "LON": -41.6801,
    "LAT": -14.6889,
    "NAME": "Presidente Jânio Quadros",
    "CLASS": "Sede Municipal",
    "STATE": "BAHIA",
    "ANNUAL": 5309,
    "JAN": 6133,
    "FEB": 6289,
    "MAR": 5603,
    "APR": 4929,
    "MAY": 4341,
    "JUN": 3911,
    "JUL": 4232,
    "AUG": 4843,
    "SEP": 5679,
    "OCT": 5886,
    "NOV": 5626,
    "DEC": 6238
  },
  {
    "ID": 21670,
    "LON": -41.4918,
    "LAT": -14.6628,
    "NAME": "Maetinga",
    "CLASS": "Sede Municipal",
    "STATE": "BAHIA",
    "ANNUAL": 5299,
    "JAN": 6263,
    "FEB": 6227,
    "MAR": 5643,
    "APR": 4905,
    "MAY": 4296,
    "JUN": 3896,
    "JUL": 4185,
    "AUG": 4808,
    "SEP": 5707,
    "OCT": 5840,
    "NOV": 5600,
    "DEC": 6218
  },